Fish Name,Country,Location,Habitat,Water Type,Typical Depth,Abundance,Latitude,Longitude
Ablabys macracanthus,Indonesia,"Indonesia,LembehStrait,Jahir",Lagoon,marine,15-27m,scarce,1.4771666526795,125.23516666094
Abramis brama,Hungary,Balaton,Lake,freshwater,1-5m,fairly common (chances are about 50%),46.85,17.066666666667
Abramis brama,Sweden,"Munkedal,SouthofSweden,RiverValboan",River,freshwater,1-3m,common (usually seen),58.333333333333,11.933333333333
Abudefduf bengalensis,HongKong,"HoiHa,SaiKung,HongKong",Bay,marine,1-4m,,22.45,114.33333333333
Abudefduf bengalensis,Malaysia,"MonkeyBay,TiomanIsland",Reef,marine,0-5m,,2.85,104.15166667302
Abudefduf natalensis,SouthAfrica,"SodwanaBay,SouthAfrica",,marine,,,27.533333333333,32.666666666667
Abudefduf notatus,Thailand,"KohBon,Thailand",Sea,marine,8-10m,abundant (always seen in some numbers),9.6166666666667,97.066666666667
Abudefduf saxatilis,Mexico,"SistemaArrecifalVeracruzano,ArrecifeHornos",Reef,marine,1-6m,abundant (always seen in some numbers),19.176000006994,96.118333331744
Abudefduf saxatilis,USA,"KeyLargo,Florida,MolassesReef",Reef,marine,4-12m,abundant,25.009616667032,80.377099990845
Abudefduf sexfasciatus,Malaysia,"MonkeyBay,TiomanIsland",Reef,marine,0-5m,,2.85,104.15166667302
Abudefduf sexfasciatus,Malaysia,PulauBidong,,marine,,abundant (always seen in some numbers),5.6166666666667,103.05
Abudefduf troschelii,CostaRica,"ParqueNacionalMarinoLasBaulas,offPlayaCarbon",,marine,2-5m,abundant (always seen in some numbers),10.45,85.866666666667
Abudefduf troschelii,Peru,Mancora,Reef,marine,3-m,common (usually seen),4.2,72.2
Abudefduf vaigiensis,Indonesia,"BatuNunggul,PenidaIsland,nearBali",Reef,marine,0-18m,,8.671666653951,115.5683333079
Abudefduf vaigiensis,Indonesia,"SDpoint,PenidaIsland,nearBali",Reef,marine,0-17m,,8.668333307902,115.49166666667
Abudefduf vaigiensis,Malaysia,"MonkeyBay,TiomanIsland",,marine,0-5m,,2.85,104.15166667302
Abudefduf vaigiensis,Malaysia,PulauBidong,Reef,marine,3-7m,abundant (always seen in some numbers),5.6166666666667,103.05
Acanthemblemaria maria,PuertoRico,"Culebra,PuertoRico",Reef,marine,10-15m,occasional,17.954000473022,19.895000457764
Acanthochromis polyacanthus,Indonesia,"LembehStrait,Kunkungan",Lagoon,marine,10-16m,occasional (usually not seen),1.4645499865214,125.22946666082
Acanthocybium solandri,CapeVerde,"Kaapverdischeeilanden,Fogo",Sea,marine,-50m,abundant (always seen in some numbers),14.916666666667,23.516666666667
Acanthocybium solandri,Mayotte,Mayotte,Island,marine,,,12.833333333333,45.333333333333
Acanthostracion polygonius,USA,"KeyLargo,Florida,MinnowCaves",Reef,marine,4-12m,occasional,25.009616667032,80.377099990845
Acanthostracion quadricornis,USA,"KeyLargo,Florida,MinnowCaves",Reef,marine,4-12m,scarce,7.9200000762939,17.709999084473
Acanthurus chirurgus,USA,"KeyLargo,Florida,DryRocks",Reef,marine,4-12m,scarce,25.124166663488,80.299166679382
Acanthurus coeruleus,FrenchGuiana,DEVILISLAND,Island,marine,2-10m,common (usually seen),5.2833333333333,52.583333333333
Acanthurus coeruleus,USA,"KeyLargo,Florida,MolassesReef",Reef,marine,4-12m,fairly common,25.009616667032,80.377099990845
Acanthurus leucocheilus,Indonesia,"SDpoint,PenidaIsland,nearBali",Reef,marine,0-17m,,8.668333307902,115.49166666667
Acanthurus leucosternon,Indonesia,"CrystalBay,PenidaIsland,nearBali",Reef,marine,0-22m,,8.7083333333333,115.45333334605
Acanthurus lineatus,Indonesia,"BatuNunggul,PenidaIsland,nearBali",Reef,marine,0-19m,,8.671666653951,115.5683333079
Acanthurus monroviae,Spain,Marbella(Malaga;Spain),Sea,marine,-20m,scarce (very unlikely),36.470000012716,4.9483333587646
Acanthurus nigricans,CostaRica,"ParqueNacionalMarinoLasBaulas,offPlayaCarbon",,marine,3-5m,fairly common (chances are about 50%),10.45,85.866666666667
Acanthurus nigricans,Indonesia,"CrystalBay,PenidaIsland,nearBali",Reef,marine,0-22m,,8.7083333333333,115.45333334605
Acanthurus pyroferus,Indonesia,"Amedwall,Bali",Reef,marine,0-14m,,8.3333333333333,115.65333334605
Acanthurus pyroferus,Indonesia,"BatuNunggul,PenidaIsland,nearBali",Reef,marine,0-18m,,8.671666653951,115.5683333079
Acanthurus pyroferus,Indonesia,"Indonesia,LembehStrait,several",Lagoon,marine,15-27m,fairly common,1.5088166554769,125.2685500145
Acanthurus pyroferus,PapuaNewGuinea,"Quayle'sReef,BootlessBay",Reef,marine,0-23m,,9.575,147.3
Acanthurus thompsoni,Indonesia,"Indonesia,LembehStrait,Jikoyance",Lagoon,marine,15-27m,scarce,1.5276166598002,125.27795000076
Acanthurus tractus,USA,"KeyLargo,Florida,MolassesReef",Reef,marine,4-12m,common,0.57700002193451,22.625999450684
Acanthurus xanthopterus,Philippines,"Catmon,SanJuan,Batangas",,marine,,,13.783333333333,121.46666666667
Acrossocheilus beijiangensis,China,"ShuiDiHe,Huizhou,GuangdongProvince",River,freshwater,0-2m,common (usually seen),23.1,114.4
Aeoliscus strigatus,Malaysia,"MonkeyBay,TiomanIsland",Reef,marine,0-5m,,2.85,104.15166667302
Aetobatus narinari,CaymanIs.,"NorthWall,GrandCayman",Island,marine,60-28m,fairly common (chances are about 50%),19.416666666667,81.333333333333
Aetobatus narinari,CostaRica,"ParqueNacionalMarinoLasBaulas,OffPlayaCarbon",,marine,2-3m,,10.45,85.866666666667
Aetobatus narinari,Egypt,"RedSea,Hurghada,AbuRamadasouthpoint",Sea,marine,15-20m,occasional (usually not seen),27.15,33.966666666667
Aetobatus narinari,SaudiArabia,"Privatebeachfrontresidence,justoutsideofmarina.",Reef,marine,10-15m,,21.733333333333,39.05
Aetomylaeus vespertilio,Palau,BarnumWall,Sea,marine,15-35m,scarce (very unlikely),7.5,134.5
Agonus cataphractus,Ireland,"RosroePier,KillaryHarbour",Bay,marine,2-6m,occasional (usually not seen),53.620000012716,9.8583333333333
Agonus cataphractus,Sweden,"Gullmarsfjorden,Hällebäck,""vänster""",Sea,marine,16-m,scarce (very unlikely),58.34593334198,11.588466644287
Agonus cataphractus,Sweden,"Gullmarsfjorden.Skår,""sjöboden-höger""",Sea,marine,18-m,scarce (very unlikely),58.29781665802,11.531883335114
Aidablennius sphynx,France,BoulourisStRaphaël,,marine,,common (usually seen),43.4,6.8
Aidablennius sphynx,France,StAygulf,,marine,,,43.383333333333,6.7166666666667
Aidablennius sphynx,Russia,"Burivestnick,Vishnevka,~10kmsouthofTuapse",Sea,marine,1-0m,common (usually seen),44.738333320618,39.180000003179
Alectis ciliaris,Egypt,"redsea,marsashagra",,marine,1-8m,,25.239999993642,34.791666666667
Alectis ciliaris,India,Mangalore,Sea,marine,,,13.416666666667,75.4
Alepes vari,Malaysia,"MarineReserveJetty,TiomanIsland",Reef,marine,0-5m,,2.821666653951,104.15666666031
Aluterus schoepfii,USA,"HillsboroLedge,HillsboroBeach,Florida",,marine,10-m,scarce (very unlikely),26.307000001272,80.082666667303
Aluterus scriptus,MadeiraIs.,Funchal,,marine,,occasional (usually not seen),32.633333333333,16.916666666667
Aluterus scriptus,USA,"Islamorada,Florida,ThePillars",Reef,marine,4-12m,scarce,7.8429999351501,17.643999099731
Amatitlania nigrofasciata,PuertoRico,"CanaboncitoRiver,CaguasMunicipality",River,freshwater,0-0m,fairly common (chances are about 50%),18.3,66.05
Amblycirrhitus pinos,USA,"KeyLargo,Florida,SnapperLedge",Reef,marine,4-12m,scarce,58.5,25.75
Amblycirrhitus pinos,USA,"SeperatedRocks,DeerfieldBeach,Florida",Sea,marine,10-m,occasional (usually not seen),26.313000011444,80.066333333651
Amblyeleotris fontanesii,Indonesia,"Indonesia,LembehStrait,Jahir",Lagoon,marine,15-27m,scarce,1.4771666526794,125.23516666094
Amblyglyphidodon aureus,Indonesia,"LembehStrait,Jikoyance",Lagoon,marine,20-25m,occasional (usually not seen),1.5276166598002,125.27795000076
Amblyglyphidodon aureus,PapuaNewGuinea,"EndBommie,BootlessBay",Reef,marine,0-19m,,9.5900000254313,147.27000001272
Amblyglyphidodon curacao,Indonesia,"LembehStrait,KapalIndah",Lagoon,marine,5-10m,scarce (very unlikely),1.4317000071208,125.190716664
Amblyglyphidodon curacao,Malaysia,"MonkeyBay,TiomanIsland",Reef,marine,0-5m,,2.85,104.15166667302
Amblyglyphidodon leucogaster,Malaysia,"MalangRocks,TulaiIsland,nearTiomanIsland",Reef,marine,0-14m,,2.9019999821981,104.10250000159
Amblyglyphidodon leucogaster,PapuaNewGuinea,"Dinah'sDelight,BootlessBay",Reef,marine,0-25m,,9.5666666666667,147.26666666667
Amblygobius albimaculatus,Maldives,"NorthMaleAtoll,KudaKandu",,marine,,,4.6400000254313,73.410000006358
Amblypomacentrus breviceps,Indonesia,"LembehStrait,RetakLarry",Lagoon,marine,20-25m,occasional (usually not seen),1.4905166625977,125.23688333829
Amblyraja radiata,Denmark,Kattegat,Sea,brackish,50-80m,fairly common (chances are about 50%),56.966666666667,11.183333333333
Ameiurus catus,USA,"RockCreek,underPStreetBridge,WashingtonDC",River,freshwater,0-2m,common (usually seen),40.516666666667,77.033333333333
Ameiurus natalis,USA,nearmouthofOmakCreekinsmolttrap,River,freshwater,0-1m,occasional (usually not seen),48.406166680654,119.5
Ameiurus nebulosus,Czechia,"Nymburk,undernewmaltplant",River,freshwater,,abundant (always seen in some numbers),50.17383333842,15.036666667461
Ameiurus nebulosus,Czechia,"Nymburk,undernewmaltplant",River,freshwater,1-2m,abundant (always seen in some numbers),50.17383333842,15.036666667461
Amphilophus citrinellus,PuertoRico,"CanasandCanaboncitoRivers,Caguas",River,freshwater,0-0m,fairly common (chances are about 50%),18.266666666667,66.05
Amphilophus citrinellus,PuertoRico,"GuajatacaReservoir,QuebradillasMunicipality",Lake,freshwater,,abundant (always seen in some numbers),18.383333333333,66.916666666667
Amphilophus citrinellus,Singapore,JurongLake,Pond,freshwater,1-m,occasional (usually not seen),1.328333346049,103.73333333333
Amphilophus labiatus,PuertoRico,"CanasandCanaboncitoRivers,Caguas",River,freshwater,0-0m,fairly common (chances are about 50%),18.266666666667,66.033333333333
Amphilophus labiatus,PuertoRico,GuajatacaReservoir,Lake,freshwater,,common (usually seen),18.383333333333,66.916666666667
Amphilophus labiatus,Singapore,PunggolPond,Pond,brackish,0-1m,common (usually seen),1.3766666730245,103.9
Amphilophus labiatus,Singapore,PunggolPond,Pond,brackish,0-1m,common (usually seen),1.3766666730245,103.9
Amphilophus labiatus,Singapore,PunggolPond,Pond,brackish,0-1m,common (usually seen),1.3766666730245,103.9
Amphiprion clarkii,Indonesia,"BatuNunggul,PenidaIsland,nearBali",Reef,marine,0-20m,,8.671666653951,115.5683333079
Amphiprion clarkii,Indonesia,"LembehStrait,manylocations",Lagoon,marine,1-25m,abundant (always seen in some numbers),1.4645499865214,25.229466660818
Amphiprion clarkii,Indonesia,"ToyahPakeh,PenidaIsland,nearBali",Reef,marine,0-24m,,8.675,115.48333333333
Amphiprion clarkii,Malaysia,"FanCanyon,TulaiIsland,nearTiomanIsland",Reef,marine,0-17m,,2.9028333028158,104.1
Amphiprion clarkii,PapuaNewGuinea,"Dinah'sDelight,BootlessBay",Reef,marine,0-25m,,9.5666666666667,147.26666666667
Amphiprion frenatus,Malaysia,"KadorReef,TulaiIsland,nearTiomanIsland",Reef,marine,0-18m,,2.921666653951,104.10166666508
Amphiprion ocellaris,Malaysia,"FanCanyon,TulaiIsland,nearTiomanIsland",Reef,marine,0-17m,,2.9028333028158,104.1
Amphiprion ocellaris,Malaysia,"PirateReef,TiomanIsland",Reef,marine,0-10m,,2.8166666666667,104.15
Amphiprion perideraion,Indonesia,"LembehStrait,various",Lagoon,marine,5-10m,occasional (usually not seen),1.4645499865214,125.22946666082
Amphiprion perideraion,Malaysia,"PirateReef,TiomanIsland",Reef,marine,0-10m,,2.8166666666667,104.15
Amphiprion perideraion,PapuaNewGuinea,"Susie'sBommie,BootlessBay",Reef,marine,0-28m,,9.571666653951,147.25166667302
Amphiprion perideraion,Timor-Leste,11/2hoursEastofDili,Reef,marine,0-5m,,8.471666653951,125.88333333333
Amphiprion polymnus,PapuaNewGuinea,"LionIsland,BootlessBay",Reef,marine,0-13m,,9.5333333333333,147.28333333333
Amphiprion sandaracinos,Malaysia,"PirateReef,TiomanIsland",Reef,marine,0-10m,,2.8166666666667,104.15
Amphiprion sebae,Thailand,"BangsakWreck,nearKhaolak",Sea,marine,18-20m,common (usually seen),8.6333333333333,98.25
Anampses meleagrides,PapuaNewGuinea,"EndBommie,BootlessBay",Reef,marine,0-19m,,9.5900000254313,147.27000001272
Anampses meleagrides,Philippines,"PinkWall,PuertoGalera,Or.Mindoro",Reef,marine,15-m,scarce (very unlikely),64.983333333333,218.88333333333
Anampses neoguinaicus,PapuaNewGuinea,"EndBommie,BootlessBay",Reef,marine,0-19m,,9.5900000254313,147.27000001272
Anchoa mitchilli,USA,"IndianRiverLagoon,FortPierce,FL",Lagoon,marine,2-10m,abundant (always seen in some numbers),27.456000010172,80.309499994914
Anguilla rostrata,Germany,MüritzNationalpark,Lake,freshwater,2-6m,,53.428800010681,12.825499979655
Anguilla rostrata,Germany,Warnow,River,freshwater,2-6m,,54.062600000699,12.175200001399
Anguilla rostrata,USA,TuckerSandoffshoreNewJerseyUSAEastcoast,Sea,brackish,0-1m,scarce (very unlikely),39.492776679993,74.294166660309
Anisotremus surinamensis,FrenchGuiana,DEVILISLAND,Island,marine,4-8m,abundant (always seen in some numbers),5.2833333333333,52.583333333333
Anisotremus surinamensis,FrenchGuiana,RoyaleIslandnearKourou,,marine,0-2m,abundant (always seen in some numbers),5.2833333333333,52.583333333333
Anisotremus surinamensis,USA,BathtubReef,Reef,marine,2-4m,,27.183333333333,80.15
Anisotremus surinamensis,USA,"KeyLargo,Florida,MolassesReef",Reef,marine,4-12m,occasional,0.57700002193451,22.625999450684
Anisotremus virginicus,USA,BathtubReef,Reef,marine,2-4m,common (usually seen),27.183333333333,80.15
Anisotremus virginicus,USA,"Islamorada,Florida,ThePillars",Reef,marine,4-12m,occasional,7.8429999351501,17.643999099731
Antennarius commerson,Indonesia,"Indonesia,LembehStrait,several",Lagoon,marine,15-27m,fairly common,1.5276166598002,125.27795000076
Antennarius commerson,Thailand,"BirdRock,SimilanIslands",Reef,marine,5-6m,scarce (very unlikely),8.5981666564941,97.797499974569
Antennarius maculatus,Indonesia,"Indonesia,LembehStrait,MagicCrack",Lagoon,marine,15-27m,scarce,1.4903499921163,125.23688333829
Antennarius pictus,Indonesia,"Indonesia,LembehStrait,several",Lagoon,marine,15-27m,fairly common,1.4771666526794,125.23516666094
Anthias anthias,Greece,"Kythnosislnand,AgiosSostisbeach",Sea,marine,14-15m,common (usually seen),37.906666692098,24.425
Anthias anthias,Italy,SeccaMonaciCaprera,Bank,marine,28-29m,abundant (always seen in some numbers),41.25,9.6
Anthias anthias,Italy,tirreno,,marine,,,38.066666666667,15.1
Aphanius dispar,Djibouti,LakeAssalHotSprings,River,brackish,1-1m,common (usually seen),11.6,42.4
Apogon imberbis,Algeria,"Jijel""laCrique""",,marine,1-2m,common (usually seen),36.816666666667,5.7
Apogon imberbis,Greece,"Kythnosislnand,AgiosSostisbeach",Sea,marine,10-11m,,37.442333348592,24.425
Apogon maculatus,USA,"KeyLargo,Florida,BenwoodWreck",Reef,marine,4-12m,scarce,3.1400001049042,19.930000305176
Apogon robinsi,USA,"KeyLargo,Florida,SnapperLedge",Reef,marine,4-12m,scarce,58.5,25.75
Apolemichthys trimaculatus,Indonesia,"BatuNunggul,PenidaIsland,nearBali",Reef,marine,0-19m,,8.671666653951,115.5683333079
Apterichtus caecus,Spain,"Sardina,nearsunklighthouse",Sea,marine,8-10m,occasional (usually not seen),283.31666666667,1181.05
Argyrosomus regius,Yemen,coastalwaters,Sea,marine,80-150m,common (usually seen),14.569166692098,49.118500002225
Arothron manilensis,Indonesia,"Indonesia,LembehStrait,AwShucks",Lagoon,marine,6-23m,scarce,1.4645499865214,125.22946666082
Arothron mappa,Indonesia,"Indonesia,LembehStrait,TK2",Lagoon,marine,6-23m,scarce,1.4921833356222,125.23854999542
Arothron mappa,PapuaNewGuinea,"Dinah'sDelight,BootlessBay",Reef,marine,0-25m,,9.5666666666667,147.26666666667
Arothron mappa,PapuaNewGuinea,"MVTuart,LionIsland,BootlessBay",Reef,marine,0-14m,,9.5333333333333,147.27166665395
Arothron meleagris,CostaRica,"ParqueNacionalMarinoLasBaulas,offPlayaCarbon",,marine,0-1m,occasional (usually not seen),10.45,85.866666666667
Arothron nigropunctatus,Indonesia,"SDpoint,PenidaIsland,nearBali",Reef,marine,0-17m,,8.668333307902,115.49166666667
Arothron nigropunctatus,Malaysia,"KadorReef,TulaiIsland,nearTiomanIsland",Reef,marine,0-18m,,2.921666653951,104.10166666508
Arothron nigropunctatus,PapuaNewGuinea,"MVTuart,LionIsland,BootlessBay",Reef,marine,0-14m,,9.5333333333333,147.27166665395
Arothron nigropunctatus,PapuaNewGuinea,"Quayle'sReef,BootlessBay",Reef,marine,0-23m,,9.575,147.3
Arothron stellatus,Mauritius,"Maurititius,at""WaterLilly""ship-wrack,north-westcoast",Island,marine,20-28m,scarce (very unlikely),20.283333333333,57.55
Arothron stellatus,PapuaNewGuinea,"LionIsland,BootlessBay",Reef,marine,0-19m,,9.5333333333333,147.28333333333
Artedius fenestralis,,"BelcarraBay,offthewharf",,marine,3-4m,common (usually seen),49.3125,122.9288333257
Aspidontus dussumieri,Israel,"TheJapaneseGardens,Eilat,RedSea",Reef,marine,25-20m,scarce (very unlikely),29.833333333333,35.516666666667
Asterropteryx ensifera,Indonesia,"Indonesia,LembehStrait,Jahir",Lagoon,marine,15-27m,scarce,1.4771666526794,125.23516666094
Astronotus ocellatus,HongKong,AberdeenReservoir,Lake,freshwater,1-2m,occasional (usually not seen),22.333333333333,114.16666666667
Atherina boyeri,Algeria,Jijel,,marine,,,36.7,5.8166666666667
Atherinomorus lacunosus,Singapore,PasirRisPark,Sea,marine,1-2m,abundant (always seen in some numbers),1.3666666666667,103.8
Aulopus filamentosus,Croatia,AdriaCroatiaBlitvenica,Sea,marine,-143m,occasional (usually not seen),43.608699989319,15.587100028992
Aulostomus chinensis,Indonesia,"Indonesia,LembehStrait,several",Lagoon,marine,15-27m,fairly common,1.4645499865214,125.22946666082
Aulostomus chinensis,Indonesia,"SDpoint,PenidaIsland,nearBali",Reef,marine,0-17m,,8.668333307902,115.49166666667
Aulostomus chinensis,Indonesia,"ToyahPakeh,PenidaIsland,nearBali",Reef,marine,0-24m,,8.675,115.48333333333
Aulostomus chinensis,PapuaNewGuinea,"Quayle'sReef,BootlessBay",Reef,marine,0-23m,,9.575,147.3
Austrolebias elongatus,Argentina,"charcostemporariosdeEzeiza,BuenosAires.",Pond,freshwater,30-1m,occasional (usually not seen),34.816666666667,58.533333333333
Bagre bagre,FrenchGuiana,MahuryEstuarynearCayenne,,brackish,,,4.8333333333333,52.283333333333
Balistapus undulatus,Indonesia,"BatuNunggul,PenidaIsland,nearBali",Reef,marine,0-18m,,8.671666653951,115.5683333079
Balistapus undulatus,Indonesia,"CrystalBay,PenidaIsland,nearBali",Reef,marine,0-22m,,8.7083333333333,115.45333334605
Balistapus undulatus,Indonesia,"Indonesia,LembehStrait,Critterhunt",Lagoon,marine,6-23m,scarce,1.4600000063578,125.225
Balistapus undulatus,Indonesia,"ToyahPakeh,PenidaIsland,nearBali",Reef,marine,0-24m,,8.675,115.48333333333
Balistes capriscus,Portugal,nearadragabeach,Sea,marine,4-6m,occasional (usually not seen),38.8,9.4836666742961
Balistes polylepis,Mexico,"Huatabampo,Sonora",Sea,marine,,common (usually seen),26.35,109.86666666667
Balistes vetula,PuertoRico,"Culebra,PuertoRico",Reef,marine,15-23m,scarce (very unlikely),18.336366653442,65.230816666285
Balistoides viridescens,Egypt,SharelSheick,Reef,marine,-25m,common (usually seen),27.983333333333,34.45
Balistoides viridescens,Indonesia,"Indonesia,LembehStrait,several",Lagoon,marine,15-27m,scarce,1.4645499865214,125.22946666082
Balistoides viridescens,Indonesia,"SDpoint,PenidaIsland,nearBali",Reef,marine,0-17m,,8.668333307902,115.49166666667
Balistoides viridescens,PapuaNewGuinea,"Susie'sBommie,BootlessBay",Reef,marine,0-28m,,9.571666653951,147.25166667302
Ballerus ballerus,,nearlighthouse,,freshwater,500-7500m,,50.503333346049,132.34166666667
Barbodes semifasciolatus,HongKong,PokFuLamReservoir,Lake,freshwater,1-2m,scarce (very unlikely),22.333333333333,114.16666666667
Barbonymus schwanefeldii,HongKong,AberdeenReservoir,Lake,freshwater,2-4m,occasional (usually not seen),22.333333333333,114.16666666667
Barbucca diabolica,Malaysia,"ReyauRiver,Kedah,Malaysia(HighGradientRiverwithCrystalClearWater)",River,freshwater,0-0m,abundant (always seen in some numbers),50.5,132.34166666667
Barbus plebejus,Italy,"Framacreek,nearTorniellavillage,Grossetoprovince,Tuscany,Italy",River,freshwater,0-250m,abundant (always seen in some numbers),43.066666666667,11.15
Barchatus cirrhosus,Egypt,"Sinaypeninsula,Dahab",Reef,marine,1-6m,common (usually seen),28.566666666667,34.583333333333
Bathophilus nigerrimus,Italy,TIRRENOMERIDIONALE,,freshwater,,,38.25,15.083333333333
Bathyraja abyssicola,NewZealand,OffshoreWharanui,Shelf,marine,2467-m,scarce (very unlikely),42.15,176.95
Bathyraja violacea,USA,PointAlvanearKetchikanAlaska,Bank,marine,-100m,occasional (usually not seen),55.216916672389,131.295966657
Bathysolea profundicola,Spain,PuertodeSantaMaría(Spain),Sea,marine,,common (usually seen),36.6,6.2166666666667
Belone belone,Greece,"Alonissos,Kokkinokastro",Bay,marine,3-5m,,39.2731133461,24.505596669515
Belone belone,Sweden,LandskronaBorstahusen,Shelf,brackish,2-4m,common (usually seen),55.896666653951,12.806666692098
Belone belone,Sweden,LandskronaBorstahusen,Shelf,brackish,2-4m,common (usually seen),63.966666666667,20.066666666667
Beringraja binoculata,USA,"WatermansWall,BainbridgeIsland,WA,USA",Sea,marine,40-m,scarce (very unlikely),47.583333333333,122.56666666667
Beringraja rhina,USA,"SouthofEdmonds(WA)OilDock,PugetSound",,marine,,,47.8,122.36666666667
Betta macrostoma,Indonesia,PesaguanRiverinlandwater,Pond,freshwater,0-m,common (usually seen),1.9416666666667,110.18550000191
Blicca bjoerkna,Italy,Pisa,River,brackish,1-5m,occasional (usually not seen),43.25,10.166666666667
Bodianus axillaris,Indonesia,"CrystalBay,PenidaIsland,nearBali",Reef,marine,0-22m,,8.7083333333333,115.45333334605
Bodianus axillaris,Indonesia,"SDpoint,PenidaIsland,nearBali",Reef,marine,0-17m,,8.668333307902,115.49166666667
Bodianus diana,Indonesia,"BatuNunggul,PenidaIsland,nearBali",Reef,marine,0-19m,,8.671666653951,115.5683333079
Bodianus diana,Indonesia,"CrystalBay,PenidaIsland,nearBali",Reef,marine,0-22m,,8.7083333333333,115.45333334605
Bodianus mesothorax,Indonesia,"Indonesia,LembehStrait,NudiRetreat",Lagoon,marine,15-27m,scarce,1.4900166511536,125.23516666094
Bodianus neilli,Thailand,"BangsakWreck,nrKhaolak,W.Thailand",Sea,marine,20-m,abundant (always seen in some numbers),8.644166692098,98.251866674423
Bodianus opercularis,Egypt,"BeachSafariCampHouseReef,ca.12kmnorthofMarsaAlam",Reef,marine,48-50m,common (usually seen),25.195499992371,34.825
Bodianus rufus,USA,"KeyLargo,Florida,MolassesReef",Reef,marine,4-12m,occasional,0.57700002193451,22.625999450684
Bolbometopon muricatum,Australia,"WatsonsBay,LizardIsland",,marine,,,14.666666666667,145.46666666667
Bolbometopon muricatum,NorthMarianas,"Rota,MarianaIslands",Island,marine,-15m,scarce (very unlikely),14.166666666667,145.23333333333
Boleophthalmus boddarti,Singapore,"PasirRisPark,inthemangroveswamp",Swamp,brackish,0-m,abundant (always seen in some numbers),1.3666666666667,103.8
Boleophthalmus boddarti,VietNam,Saigon,River,brackish,,occasional (usually not seen),10.786966641744,106.75499998728
Bothus mancus,Indonesia,"Indonesia,LembehStrait,Jahir",Lagoon,marine,15-27m,scarce,1.4771666526794,125.23516666094
Botia histrionica,India,River,River,freshwater,,,82.575,145.48333333333
Botia lohachata,,homeaquarium,,freshwater,,,49.283333333333,122.78333333333
Brachaluteres jacksonianus,Indonesia,"RajaAmpat,nearMisoolEcoResort",Reef,marine,10-15m,scarce (very unlikely),1.4666666666667,130.26666666667
Brachaluteres jacksonianus,Indonesia,"RajaAmpat,nearMisoolEcoResort",Reef,marine,10-15m,scarce (very unlikely),1.4666666666667,130.26666666667
Brachyplatystoma filamentosum,FrenchGuiana,Approuagueriver,River,brackish,2-5m,occasional (usually not seen),4.4833333333333,51.933333333333
Brama brama,Norway,GullfaksC(oilinstallation),Sea,marine,660-90m,,61.233333333333,2.2666666666667
Brama brama,UK,"SouthBeachBlythNorthumberland,nearBandstand",Sea,marine,-1m,,55.111666663488,1.496666653951
Brama brama,UKScotland,"Newburghbeach,Aberdeenshire,Scotland",,marine,,,57.289999993642,1.9916666666667
Bregmaceros houdei,USA,"HurricaneCreek,aninter-keychannelinBiscayneNationalPark,FL.",Sea,marine,1-3m,scarce (very unlikely),25.383333333333,80.233333333333
Brycon behreae,CostaRica,"RioSavegre,CostaRica",River,freshwater,6-m,abundant (always seen in some numbers),9.55,84.183333333333
Buglossidium luteum,Italy,Sicily,,marine,,,38.133333333333,15.116666666667
Butis amboinensis,Australia,BribieIsland,Lagoon,brackish,3-m,scarce (very unlikely),26.833333333333,153.11666666667
Butis amboinensis,Australia,BribieIsland,Lagoon,brackish,3-m,scarce (very unlikely),26.833333333333,153.11666666667
Butis amboinensis,Australia,BribieIsland,Lagoon,brackish,3-m,scarce (very unlikely),26.833333333333,153.11666666667
Caesio cuning,Indonesia,"Indonesia,LembehStrait,several",Lagoon,marine,15-27m,fairly common,1.4317000071208,125.190716664
Caesio lunaris,Egypt,MarsaShagra,,marine,0-10m,,25.25,34.8
Caesio lunaris,Egypt,MarsaShagra,,marine,0-10m,,25.25,34.8
Caesio teres,Malaysia,"MonkeyBay,TiomanIsland",Reef,marine,0-5m,,2.85,104.15166667302
Calamus calamus,USA,"KeyLargo,Florida,MinnowCaves",Reef,marine,4-12m,occasional,7.9200000762939,17.709999084473
Calamus pennatula,PuertoRico,"Culebra,PuertoRico",Reef,marine,10-15m,fairly common,18.537000656128,20.910999298096
Callechelys marmorata,Egypt,SentidoOrientalDreamResort,Lagoon,marine,8-12m,,25.833333333333,34.433333333333
Callionymus bairdi,CaymanIs.,"LittleCaymanIsland,BWI",Reef,marine,-12m,occasional (usually not seen),19.681666692098,80.088333336512
Callionymus lyra,Norway,"Botnerbaugen,Larkollen,Rygge",Shelf,marine,10-15m,occasional (usually not seen),60.180000050863,10.659999974569
Callionymus pusillus,Turkey,SeferihisarBay,Sea,marine,2-5m,,38.191666666667,26.836666679382
Campostoma anomalum,USA,"BlackWalnutCreek,nearByronIL",River,freshwater,0-1m,abundant (always seen in some numbers),42.087124999364,89.226909001668
Cantherhines macrocerus,USA,"KeyLargo,Florida,MolassesReef",Reef,marine,4-12m,scarce,0.57700002193451,22.625999450684
Cantherhines pullus,USA,"KeyLargo,Florida,SnapperLedge",Reef,marine,4-12m,occasional,58.5,25.75
Canthidermis sufflamen,USA,"BiscayneNationalPark,Florida,Scott'sReef",Reef,hypersaline,4-12m,scarce,27.858999252319,20.076000213623
Canthigaster compressa,Indonesia,"LembehStrait,severalsites",Lagoon,marine,16-20m,occasional (usually not seen),1.3905166625977,125.23688333829
Canthigaster coronata,Indonesia,"Indonesia,LembehStrait,Critterhunt",Lagoon,marine,6-23m,scarce,1.4600000063578,125.225
Canthigaster rostrata,USA,"KeyLargo,Florida,SnapperLedge",Reef,marine,4-12m,occasional,58.5,25.75
Canthigaster valentini,Indonesia,"Indonesia,LembehStrait,several",Lagoon,marine,6-23m,fairly common,1.4641666730245,125.22780000369
Canthigaster valentini,Indonesia,"SDpoint,PenidaIsland,nearBali",Reef,marine,0-17m,,8.668333307902,115.49166666667
Canthigaster valentini,Indonesia,"Tugu,PenidaIsland,nearBali",Reef,marine,0-22m,,8.671666653951,115.54166666667
Canthigaster valentini,PapuaNewGuinea,"MVNewMarineNo.7,BootlessBay",Reef,marine,0-19m,,9.5,147.16666666667
Canthigaster valentini,PapuaNewGuinea,"MVPacificGas,BootlessBay",Reef,marine,0-33m,,9.571666653951,147.27666667302
Canthigaster valentini,PapuaNewGuinea,"Quayle'sReef,BootlessBay",Reef,marine,0-23m,,9.575,147.3
Canthigaster valentini,Seychelles,"Dredger,Mahe,Seychelles",Reef,marine,15-18m,common (usually seen),11.7,75.566666666667
Capoeta fusca,Iran,"I.R.Iran,Khorasan,Birjand,Mehdiabadganat",,freshwater,,common (usually seen),32.816666666667,59.483333333333
Caranx caballus,CostaRica,"ParqueNacionalMarinoLasBaulas,offPlayaCarbon",,marine,2-3m,common (usually seen),10.45,85.866666666667
Caranx caninus,Mexico,"Mazatlan,Sinaloa",Sea,marine,,occasional (usually not seen),23.233333333333,106.46666666667
Caranx crysos,Brazil,"IlhadeSantaCatarina,BayofCanasvieiras",Island,marine,3-10m,common (usually seen),27.417333348592,48.471333344777
Caranx heberi,Kenya,NgomeniReef,Reef,marine,10-15m,common (usually seen),3.0333333333333,40.216666666667
Caranx hippos,FrenchGuiana,DEVILISLAND,Island,marine,3-10m,common (usually seen),5.2833333333333,52.583333333333
Caranx hippos,Guinea-Bissau,"Bubacque,accajaclub",Reef,marine,-25m,abundant (always seen in some numbers),11.333333333333,16.333333333333
Caranx ignobilis,Djibouti,leGoubetalKharab,Sea,marine,-30m,abundant (always seen in some numbers),11.783333333333,42.883333333333
Caranx ignobilis,India,"Mangalorecoast,karnatka,India",Sea,marine,,,12.633333333333,75.133333333333
Caranx latus,,CuracaoSouthCoastearPiscaderaBay,Reef,marine,1-60m,fairly common (chances are about 50%),12.2,68.966666666667
Caranx latus,,CuracaoSouthCoastearPiscaderaBay,Reef,marine,1-60m,fairly common (chances are about 50%),12.2,68.966666666667
Caranx latus,Brazil,"IlhadeSantaCatarina,BayofCanasvieiras",Island,marine,3-10m,,27.417333348592,48.471333344777
Caranx latus,USA,"KeyLargo,Florida,MolassesReef",Reef,marine,4-12m,scarce,0.57700002193451,22.625999450684
Caranx lugubris,CanaryIs.,"LaCaleta,ElHierro",,marine,12-m,scarce (very unlikely),27.8,17.866666666667
Caranx lugubris,PuertoRico,southsideMonaIsland,Sea,marine,10-15m,,18.05,67.866666666667
Caranx rhonchus,Turkey,"offFoça,IzmirBay",Sea,marine,100-m,common (usually seen),38.7,26.6
Caranx ruber,USA,"KeyLargo,Florida,MolassesReef",Reef,marine,4-12m,fairly common,0.57700002193451,22.625999450684
Caranx ruber,USA,SouthofKeyWestnearBocaGrandeKey,Sea,marine,8-10m,common (usually seen),24.485166676839,82.103999996185
Caranx tille,Malaysia,"SoyakIsland,nearTiomanIsland",Reef,marine,0-12m,,2.871666653951,104.14166666667
Carassius carassius,Netherlands,"Opheusden,Uiterwaard",Pond,freshwater,0-2m,occasional (usually not seen),51.933333333333,5.65
Carcharhinus leucas,Gabon,"Iguela,nationalpark",Bay,marine,-5m,abundant (always seen in some numbers),1.9166666666667,9.3166666666667
Carcharhinus leucas,Thailand,HinDaeng,Reef,marine,28-30m,occasional (usually not seen),8.4986666361491,98.823216692607
Carcharhinus limbatus,FrenchGuiana,DEVILISLAND,Sea,marine,40-60m,occasional (usually not seen),5.6166666666667,52.583333333333
Carcharhinus longimanus,Sweden,"GullmarsfjordennearSkredsvik,Bohuslän,Sweden",Bay,marine,,scarce (very unlikely),58.466666666667,11.733333333333
Carcharhinus melanopterus,Malaysia,"CoralIsland,nearTiomanIsland",Reef,marine,0-5m,,2.8049999872843,104.13500000636
Carcharhinus melanopterus,Maldives,"Vabbinfaru,Southside",Reef,marine,1-2m,,8.6,79.916666666667
Carcharhinus melanopterus,Thailand,KohPhiPhiDon,Reef,marine,1-3m,common (usually seen),7.7166666666667,98.783333333333
Carcharhinus perezii,FrenchGuiana,DEVILISLAND,Sea,marine,5-15m,common (usually seen),5.2833333333333,52.583333333333
Carcharhinus plumbeus,Italy,SICILY,,marine,,,38.133333333333,15.083333333333
Carcharhinus porosus,Mexico,"Huatabampo,Sonora",,marine,,fairly common (chances are about 50%),26.35,109.91666666667
Careproctus melanurus,USA,"NorthernCalifornia,nearFarallonIslands",Shelf,marine,-120m,,37.733333333333,123.03333333333
Careproctus melanurus,USA,"NorthernCalifornia,nearFarallonIslands",Shelf,marine,-120m,,37.733333333333,123.03333333333
Caulolatilus affinis,Mexico,"Huatabampo,Sonora",,marine,,common (usually seen),26.366666666667,109.91666666667
Caulolatilus affinis,Mexico,"Huatabampo,Sonora",Sea,marine,,common (usually seen),26.366666666667,109.91666666667
Centriscus scutatus,India,GulfofMannarcoast,Shelf,marine,6-10m,fairly common (chances are about 50%),9.1666666666667,78.333333333333
Centrolabrus melanocercus,Turkey,"nearuzunada,IzmirBay",Bay,marine,12-30m,scarce (very unlikely),38.483333333333,26.666666666667
Centrolophus niger,Norway,NorthAtlanticOcean,Sea,marine,10-30m,occasional (usually not seen),64.517483329773,1.0188833336035
Centrolophus niger,Spain,"Azohia,nearMurcia,Spain",Sea,marine,1-3m,,37.533333333333,1.1
Centropomus nigrescens,Mexico,"LaMira,LázaroCárdenas,Michoacán,México.",Pond,freshwater,0-1m,abundant (always seen in some numbers),18.020000000795,102.31000000636
Centropomus nigrescens,Mexico,"LeftarmoftheBalsasriver,to11kmoftheopening,inMichoacan,Mexico",River,freshwater,0-1m,common (usually seen),18.03433333238,102.17333332698
Centropomus nigrescens,Mexico,"OpeningoftheleftarmoftheBalsasriver,Michoacan,Mexico",Sea,brackish,3-6m,common (usually seen),17.940000025431,102.12666666508
Centropomus parallelus,FrenchGuiana,ComtérivernearCayenne,,freshwater,,,4.7166666666667,52.333333333333
Centropomus unionensis,USA,"KeyLargo,Florida,MolassesReef",Reef,marine,4-12m,scarce,0.57700002193451,22.625999450684
Centropristis ocyurus,USA,"SandFlat1/2mileoffDaniaBeach,Florida",Sea,marine,12-13m,scarce (very unlikely),26.05,80.066666666667
Centropristis striata,USA,4kilometersoffAtlanticCityNewJerseyUSA,Sea,marine,15-m,occasional (usually not seen),39.483333333333,74.266666666667
Centropyge argi,USA,"StetsonBank,Buoy3,GulfofMexico",Bank,marine,25-30m,scarce (very unlikely),28.166445000966,94.296526654561
Centropyge argi,USA,"StetsonBank,Buoy3,GulfofMexico",Bank,marine,25-30m,scarce (very unlikely),28.166445000966,94.296526654561
Centropyge bicolor,Indonesia,"BatuNunggul,PenidaIsland,nearBali",Reef,marine,0-18m,,8.671666653951,115.5683333079
Centropyge bicolor,Indonesia,"LembehStrait,Jikoyance",Lagoon,marine,20-30m,scarce (very unlikely),1.5276166598002,125.27795000076
Centropyge bispinosa,PapuaNewGuinea,"EndBommie,BootlessBay",Reef,marine,0-19m,,9.5900000254313,147.27000001272
Centropyge bispinosa,PapuaNewGuinea,"Susie'sBommie,BootlessBay",Reef,marine,0-28m,,9.571666653951,147.25166667302
Centropyge tibicen,Indonesia,"LembehStrait,BatuMerah",Lagoon,marine,20-23m,occasional (usually not seen),1.5088166554769,125.2685500145
Centropyge tibicen,Malaysia,"SoyakIsland,nearTiomanIsland",Reef,marine,0-12m,,2.871666653951,104.14166666667
Cephalopholis argus,Indonesia,"BatuNunggul,PenidaIsland,nearBali",Reef,marine,0-18m,,8.671666653951,115.5683333079
Cephalopholis boenak,Malaysia,"ChebehIsland,nearTiomanIsland",Reef,marine,0-24m,,2.9266666412354,104.09166666667
Cephalopholis boenak,Malaysia,"FanCanyon,TulaiIsland,nearTiomanIsland",Reef,marine,0-17m,,2.9028333028158,104.1
Cephalopholis cruentata,USA,"KeyLargo,Florida,MolassesReef",Reef,marine,4-12m,occasional,0.57700002193451,22.625999450684
Cephalopholis fulva,USA,"Islamorada,Florida,ThePillars",Reef,marine,4-12m,scarce,7.8429999351501,17.643999099731
Cephalopholis fulva,VirginIs.(US),"St.Croix,VirginIslands",Reef,marine,6-10m,,17.76191666921,64.719149971008
Cephalopholis miniata,Indonesia,"SDpoint,PenidaIsland,nearBali",Reef,marine,0-17m,,8.668333307902,115.49166666667
Cephalopholis miniata,PapuaNewGuinea,"Susie'sBommie,BootlessBay",Reef,marine,0-28m,,9.571666653951,147.25166667302
Cephalopholis miniata,SaudiArabia,jannaislandreef-PersianGulf,Reef,marine,15-m,common (usually seen),27.720333353678,49.916666666667
Cephalopholis urodeta,WallisFutuna,Futuna,Reef,marine,-14m,,14.283333333333,178.11666666667
Cetorhinus maximus,Spain,Benicarló(Spain),Sea,marine,,scarce (very unlikely),40.366666666667,0.41666666666667
Chaenopsis limbaughi,CaymanIs.,NorthsideofLittleCaymanIsland,Reef,marine,-12m,scarce (very unlikely),19.676666641235,80.088333336512
Chaetodipterus lippei,Gambia,"1kmoffshoreCapePoint,Gambia",Sea,marine,-7m,,13.583333333333,17.333333333333
Chaetodon auriga,Indonesia,"BatuNunggul,PenidaIsland,nearBali",Reef,marine,0-18m,,8.671666653951,115.5683333079
Chaetodon auriga,Indonesia,"SDpoint,PenidaIsland,nearBali",Reef,marine,0-17m,,8.668333307902,115.49166666667
Chaetodon bennetti,Indonesia,"BatuNunggul,PenidaIsland,nearBali",Reef,marine,0-19m,,8.671666653951,115.5683333079
Chaetodon capistratus,USA,"KeyLargo,Florida,MolassesReef",Reef,marine,4-12m,occasional,0.57700002193451,22.625999450684
Chaetodon citrinellus,PapuaNewGuinea,"EndBommie,BootlessBay",Reef,marine,0-19m,,9.5900000254313,147.27000001272
Chaetodon ephippium,Indonesia,"BatuNunggul,PenidaIsland,nearBali",Reef,marine,0-19m,,8.671666653951,115.5683333079
Chaetodon ephippium,PapuaNewGuinea,"MVPaiII,BootlessBay",Reef,marine,0-24m,,9.5900000254313,147.28833332062
Chaetodon ephippium,PapuaNewGuinea,"Quayle'sReef,BootlessBay",Reef,marine,0-23m,,9.575,147.3
Chaetodon ephippium,Thailand,SimilanIslands,Island,marine,1-2m,scarce (very unlikely),8.650533358256,736.48333333333
Chaetodon gardineri,Thailand,SimilanIslands,Island,marine,15-20m,scarce (very unlikely),14.6,97.633333333333
Chaetodon humeralis,CostaRica,"ParqueNacionalMarinoLasBaulas,offPlayaCarbon",,marine,2-5m,common (usually seen),10.45,85.866666666667
Chaetodon kleinii,Indonesia,"Amedwall,Bali",Reef,marine,0-14m,,8.3333333333333,115.65333334605
Chaetodon kleinii,Indonesia,"BatuNunggul,PenidaIsland,nearBali",Reef,marine,0-18m,,8.671666653951,115.5683333079
Chaetodon kleinii,Indonesia,"CrystalBay,PenidaIsland,nearBali",Reef,marine,0-22m,,8.7083333333333,115.45333334605
Chaetodon kleinii,Indonesia,"LembehStrait,several",Lagoon,marine,25-30m,fairly common (chances are about 50%),1.5276166598002,125.27795000076
Chaetodon kleinii,Indonesia,"Tugu,PenidaIsland,nearBali",Reef,marine,0-22m,,8.671666653951,115.54166666667
Chaetodon kleinii,PapuaNewGuinea,"Dinah'sDelight,BootlessBay",Reef,marine,0-25m,,9.5666666666667,147.26666666667
Chaetodon lineolatus,Indonesia,"BatuNunggul,PenidaIsland,nearBali",Reef,marine,0-19m,,8.671666653951,115.5683333079
Chaetodon lunula,Indonesia,"BatuNunggul,PenidaIsland,nearBali",Reef,marine,0-18m,,8.671666653951,115.5683333079
Chaetodon lunula,Indonesia,"Tugu,PenidaIsland,nearBali",Reef,marine,0-22m,,8.671666653951,115.54166666667
Chaetodon lunulatus,Philippines,"BigLaLaguna,Mindoro,Philippines",Bay,marine,2-3m,fairly common (chances are about 50%),13.526666673025,120.9683333079
Chaetodon madagaskariensis,Thailand,"NorthPoint,SimilanIslands",Sea,marine,14-20m,occasional (usually not seen),8.1166666666667,97.2
Chaetodon melannotus,Indonesia,"BatuNunggul,PenidaIsland,nearBali",Reef,marine,0-19m,,8.671666653951,115.5683333079
Chaetodon melannotus,Indonesia,"CrystalBay,PenidaIsland,nearBali",Reef,marine,0-22m,,8.7083333333333,115.45333334605
Chaetodon melannotus,Indonesia,"Tugu,PenidaIsland,nearBali",Reef,marine,0-22m,,8.671666653951,115.54166666667
Chaetodon melannotus,PapuaNewGuinea,"Dinah'sDelight,BootlessBay",Reef,marine,0-25m,,9.5666666666667,147.26666666667
Chaetodon melannotus,Philippines,"Arthur'sPlace,Anilao,SWLuzon,Philippines.",Reef,marine,4-5m,fairly common (chances are about 50%),13.683333333333,120.88333333333
Chaetodon melapterus,UnitedArabEm.,"DibbaRock,EastCoastoftheUAE",Sea,marine,5-15m,common (usually seen),25.609999974569,56.341666666667
Chaetodon meyeri,Indonesia,"BatuNunggul,PenidaIsland,nearBali",Reef,marine,0-19m,,8.671666653951,115.5683333079
Chaetodon meyeri,Indonesia,"CrystalBay,PenidaIsland,nearBali",Reef,marine,0-22m,,8.7083333333333,115.45333334605
Chaetodon meyeri,Indonesia,"ToyahPakeh,PenidaIsland,nearBali",Reef,marine,0-24m,,8.675,115.48333333333
Chaetodon mitratus,Maldives,"BaaAtoll,nearNelivaru",Reef,marine,10-28m,,5.1333333333333,73.05
Chaetodon ocellicaudus,Philippines,"BigLalaguna,Mindoro,Philippines.",Bay,marine,5-m,occasional (usually not seen),13.526666673025,120.9683333079
Chaetodon octofasciatus,Indonesia,"LembehStrait,KapalIndah",Lagoon,marine,25-29m,scarce (very unlikely),1.4317000071208,125.190716664
Chaetodon octofasciatus,Malaysia,"MonkeyBay,TiomanIsland",Reef,marine,0-5m,,2.85,104.15166667302
Chaetodon octofasciatus,Malaysia,"MonkeyBay,TiomanIsland",Reef,marine,0-5m,,2.85,104.15166667302
Chaetodon octofasciatus,Philippines,"Arthur'sPlace,SWLuzon,Philippines",Reef,marine,5-m,fairly common (chances are about 50%),13.683333333333,120.88333333333
Chaetodon oxycephalus,Indonesia,"BatuNunggul,PenidaIsland,nearBali",Reef,marine,0-18m,,8.671666653951,115.5683333079
Chaetodon pelewensis,PapuaNewGuinea,"Quayle'sReef,BootlessBay",Reef,marine,0-23m,,9.575,147.3
Chaetodon plebeius,PapuaNewGuinea,"EndBommie,BootlessBay",Reef,marine,0-19m,,9.5900000254313,147.27000001272
Chaetodon plebeius,Philippines,"BigLalaguna,Mindoro,Philippines.",Bay,marine,2-m,fairly common (chances are about 50%),13.526666673025,120.9683333079
Chaetodon punctatofasciatus,PapuaNewGuinea,"EndBommie,BootlessBay",Reef,marine,0-19m,,9.5900000254313,147.27000001272
Chaetodon punctatofasciatus,PapuaNewGuinea,"Quayle'sReef,BootlessBay",Reef,marine,0-23m,common (usually seen),9.575,147.3
Chaetodon punctatofasciatus,PapuaNewGuinea,"Quayle'sReef,BootlessBay",Reef,marine,0-23m,,9.575,147.3
Chaetodon punctatofasciatus,Philippines,"Arthur'sPlace,Anilao,SWLuzon,Philippines.",Reef,marine,3-m,occasional (usually not seen),13.683333333333,120.88333333333
Chaetodon rafflesii,Indonesia,"BatuNunggul,PenidaIsland,nearBali",Reef,marine,0-18m,,8.671666653951,115.5683333079
Chaetodon sedentarius,USA,"KeyLargo,Florida,NorthNorthRocks",Reef,marine,4-12m,scarce,8.2799997329712,17.420000076294
Chaetodon selene,Philippines,"BigLalaguna,Mindoro,Philippines.",Bay,marine,10-m,fairly common (chances are about 50%),13.526666673025,120.9683333079
Chaetodon speculum,Indonesia,"BatuNunggul,PenidaIsland,nearBali",Reef,marine,0-18m,,8.671666653951,115.5683333079
Chaetodon speculum,PapuaNewGuinea,"Dinah'sDelight,BootlessBay",Reef,marine,0-25m,,9.5666666666667,147.26666666667
Chaetodon speculum,Philippines,"LayakLayak,Anilao,SWLuzon,Philippines.",Reef,marine,10-m,occasional (usually not seen),13.683333333333,120.83333333333
Chaetodon striatus,USA,"KeyLargo,Florida,MolassesReef",Reef,marine,4-12m,occasional,0.57700002193451,22.625999450684
Chaetodon trifascialis,Indonesia,"CrystalBay,PenidaIsland,nearBali",Reef,marine,0-22m,,8.7083333333333,115.45333334605
Chaetodon trifasciatus,Indonesia,"BatuNunggul,PenidaIsland,nearBali",Reef,marine,0-19m,,8.671666653951,115.5683333079
Chaetodon trifasciatus,PapuaNewGuinea,"Dinah'sdelight,Bootlessbay",Reef,marine,0-25m,,9.5666666666667,147.26666666667
Chaetodon trifasciatus,PapuaNewGuinea,"Quayle'sReef,BootlessBay",Reef,marine,0-23m,,9.575,147.3
Chaetodon ulietensis,PapuaNewGuinea,"Dinah'sdelight,Bootlessbay",Reef,marine,0-25m,,9.5666666666667,147.26666666667
Chaetodon unimaculatus,Indonesia,"CrystalBay,PenidaIsland,nearBali",Reef,marine,0-22m,,8.7083333333333,115.45333334605
Chaetodon unimaculatus,Indonesia,"LembehStrait,Jikoyance",Lagoon,marine,30-35m,scarce (very unlikely),1.5276166598002,125.27795000076
Chaetodon unimaculatus,PapuaNewGuinea,"Dinah'sDelight,BootlessBay",Reef,marine,0-25m,,9.5666666666667,147.26666666667
Chaetodon vagabundus,Indonesia,"CrystalBay,PenidaIsland,nearBali",Reef,marine,0-22m,,8.7083333333333,115.45333334605
Chaetodon vagabundus,Indonesia,"LembehStrait,KapalIndah",Lagoon,marine,25-29m,scarce (very unlikely),1.4317000071208,125.190716664
Chaetodon vagabundus,Indonesia,"Tugu,PenidaIsland,nearBali",Reef,marine,0-22m,,8.671666653951,115.54166666667
Chaetodon vagabundus,PapuaNewGuinea,"Quayle'sReef,BootlessBay",Reef,marine,0-23m,,9.575,147.3
Chaetodon xanthocephalus,Thailand,SurinIslands,Reef,marine,3-6m,occasional (usually not seen),9.3766666730245,97.870000012716
Chaetodon xanthurus,Indonesia,"SDPoint,PenidaIsland,nearBali",Reef,marine,0-17m,,8.668333307902,115.49166666667
Chaetodontoplus caeruleopunctatus,Philippines,"PadreBurgos&LimasawaIsl.,SouthernLeyte,Philippines",Reef,marine,7-10m,scarce (very unlikely),95.616666666667,260.95
Chaetodontoplus mesoleucus,Malaysia,"ChebehIsland,nearTiomanIsland",Reef,marine,0-24m,,2.9266666412354,104.09166666667
Chaetodontoplus mesoleucus,Malaysia,"MonkeyBay,TiomanIsland",Reef,marine,0-5m,,2.85,104.15166667302
Channa asiatica,HongKong,AberdeenReservoir,Lake,freshwater,2-4m,scarce (very unlikely),22.333333333333,114.16666666667
Channa asiatica,HongKong,AberdeenReservoir,Lake,freshwater,2-4m,occasional (usually not seen),22.333333333333,114.16666666667
Channa lucius,Indonesia,"Pelalawan,NearKamparbridge",Swamp,freshwater,0-1m,common (usually seen),0.35799999237061,101.91666666667
Channa maculata,HongKong,PokFuLamReservoir,Lake,freshwater,3-5m,occasional (usually not seen),22.333333333333,114.16666666667
Channa micropeltes,Malaysia,"KeneringLake,AirGanda.",Lake,freshwater,,abundant (always seen in some numbers),5.2554999987284,101.55416666667
Channa micropeltes,Malaysia,"TemenggorLake,Banding.",Lake,freshwater,,common (usually seen),5.6421666463216,101.99283332825
Channa micropeltes,Singapore,"JurongFrogFarm,LimChuKang",Pond,freshwater,1-2m,common (usually seen),1.425,103.71333332062
Channa micropeltes,Singapore,"JurongFrogFarm,LimChuKang",Pond,freshwater,1-2m,common (usually seen),1.425,103.71333332062
Channa striata,Singapore,Kranjimarshes,Swamp,freshwater,0-1m,scarce (very unlikely),1.428333346049,103.73666667938
Channa striata,Singapore,PandanCanal,River,freshwater,1-3m,scarce (very unlikely),1.3126666704814,103.74916667938
Channa striata,Singapore,WeedyditchnearPunggolroad,River,freshwater,0-m,occasional (usually not seen),1.4100000063578,103.91166667938
Chauliodus sloani,Italy,tirreno,,marine,,,38.133333333333,15.083333333333
Chaunax pictus,Ireland,"GrandSole,ICESVIIj",Sea,marine,622-620m,scarce (very unlikely),50.116666666667,11.183333333333
Cheilinus chlorourus,Indonesia,"Tugu,PenidaIsland,nearBali",Reef,marine,0-22m,,8.671666653951,115.54166666667
Cheilinus chlorourus,Malaysia,"MonkeyBay,TiomanIsland",Reef,marine,0-5m,,2.85,104.15166667302
Cheilinus fasciatus,Indonesia,"BatuNunggul,PenidaIsland,nearBali",Reef,marine,0-18m,,8.671666653951,115.5683333079
Cheilinus fasciatus,Indonesia,"Indonesia,LembehStrait,several",Lagoon,marine,15-27m,scarce,1.4645499865214,125.22946666082
Cheilinus fasciatus,Indonesia,"SDPoint,PenidaIsland,nearBali",Reef,marine,0-17m,,8.668333307902,115.49166666667
Cheilinus fasciatus,Malaysia,"MalangRocks,TulaiIsland,nearTimoanIsland",Reef,marine,0-14m,,2.9019999821981,104.10250000159
Cheilinus fasciatus,Malaysia,"MonkeyBay,TiomanIsland",Reef,marine,0-5m,,2.85,104.15166667302
Cheilinus trilobatus,Malaysia,"MonkeyBay,TiomanIsland",Reef,marine,0-5m,,2.85,104.15166667302
Cheilinus trilobatus,PapuaNewGuinea,"Quayle'sReef,BootlessBay",Reef,marine,0-23m,,9.575,147.3
Cheilinus undulatus,Indonesia,"PanggangIsland,SeribuIslands",Island,marine,,occasional (usually not seen),7.288333384196,94.088333384196
Cheilinus undulatus,Indonesia,"SeribuIslands,seafarmingfloatingcage",,marine,,occasional (usually not seen),6.621666653951,94.088333384196
Cheilio inermis,Mozambique,"Mozambique,ReefjustSouthofTofu",Sea,marine,22-24m,,22.5,35.616666666667
Cheilio inermis,Mozambique,"Mozambique,ReefjustSouthofTofu",Sea,marine,22-24m,,22.5,35.616666666667
Cheilio inermis,Mozambique,"Mozambique,ReefjustSouthofTofu",Sea,marine,22-24m,,22.5,35.616666666667
Cheilodactylus variegatus,Peru,"Pucusana,Lima-PerunearIsland",Island,marine,3-m,common (usually seen),12.383333333333,38.4
Cheilodipterus artus,Malaysia,"PirateReef,TiomanIsland",Reef,marine,0-10m,,2.8166666666667,104.15
Cheilodipterus macrodon,PapuaNewGuinea,"MVNewMarineNo.7,BootlessBay",Reef,marine,0-19m,,9.5,147.16666666667
Cheilodipterus quinquelineatus,Indonesia,"LembehStrait,several",Lagoon,marine,22-24m,common (usually seen),1.4921833356222,125.23854999542
Cheilopogon japonicus,USA,"70milesoffcoastoffCapeMay,NJ",Sea,marine,,scarce (very unlikely),38.5,74.5
Chelidonichthys lastoviza,Spain,Bolonia(cádiz),Sea,marine,7-15m,occasional (usually not seen),36.066666666667,5.7666666666667
Chelidonichthys lucerna,France,Mandelieu,Bay,marine,30-40m,,43.525,6.968333307902
Chelidonichthys lucerna,Germany,FlensburgFjord,Bay,brackish,13-m,scarce (very unlikely),54.833333333333,9.4666666666667
Chelidonichthys lucerna,ScottI.,OffOuterHebrides,Sea,marine,50-200m,,58.833333333333,6.7833333333333
Chelidonichthys lucerna,Turkey,SigacikBay,Shelf,marine,180-240m,fairly common (chances are about 50%),37.916666666667,26.9
Chelidoperca africana,Senegal,IleMadeleine-Dakar,Sea,marine,15-m,,14.65,17.466666666667
Chelmon rostratus,Malaysia,"FanCanyon,TulaiIsland,nearTiomanIsland",Reef,marine,0-17m,,2.9028333028158,104.1
Chelon labrosus,Sweden,Kullaberg.MellanSmygenoSilvergrottan,Lagoon,marine,2-5m,occasional (usually not seen),56.301383336385,12.443800004323
Chelon ramada,Italy,Fossoreale,Lagoon,marine,3-6m,fairly common (chances are about 50%),43.833333333333,10.283333333333
Chilomycterus antillarum,VirginIs.(US),"St.Croix,VirginIslands",Reef,marine,7-9m,,17.786049969991,64.757833353678
Chilomycterus antillarum,VirginIs.(US),"St.Croix,VirginIslands",Reef,marine,7-9m,,17.786049969991,64.757833353678
Chilomycterus reticulatus,USA,"DauphinIsland,AL(offshore)",Sea,marine,,,30.25,88.075
Chilomycterus spinosus,Brazil,EstuaryofVazaBarris,River,marine,,,54.166666666667,82.333333333333
Chirodactylus brachydactylus,SouthAfrica,GroothoekbayWestCoast,Sea,marine,9-m,occasional (usually not seen),31.912366676331,18.278366661072
Chirolophis ascanii,Sweden,"""Lill-öns""sydspets+österut,söderomInreVannholmen.",Island,marine,10-11m,fairly common (chances are about 50%),57.932216644287,11.524166679382
Chirolophis ascanii,Sweden,"Brandskär,NO-Osida",Island,marine,15-16m,fairly common (chances are about 50%),58.298883342743,11.340100002289
Chirolophis ascanii,Sweden,"Ekeskär,SV-Vsida",Archip,marine,15-16m,fairly common (chances are about 50%),57.642183303833,11.639533360799
Chirolophis ascanii,Sweden,"Flatskär,väggenc:a100mSomön",Archip,marine,24-m,occasional (usually not seen),58.078500000636,11.334166653951
Chirolophis ascanii,Sweden,"Fossencamping,högrabadviken",Sea,marine,18-20m,,58.329999987284,11.554999987284
Chirolophis ascanii,Sweden,"Fulen,VSV-sida",Island,marine,18-20m,scarce (very unlikely),57.960349973043,11.512016677856
Chirolophis ascanii,Sweden,"Gäven,SO-Ssida",Archip,marine,15-13m,common (usually seen),58.270116678874,11.350883324941
Chirolophis ascanii,Sweden,"Gäven,SO-S-sida",,marine,15-17m,common (usually seen),58.270116678874,11.350883324941
Chirolophis ascanii,Sweden,"Gullmarsfjorden.Fossen,badvikenneretillhöger",Sea,marine,17-19m,fairly common (chances are about 50%),58.324233341217,11.562100028992
Chirolophis ascanii,Sweden,Gullmarsfjorden.Hågarnsskären,Island,marine,20-24m,fairly common (chances are about 50%),58.263850005468,11.471899986267
Chirolophis ascanii,Sweden,"Humleskär,S-V-NV",Island,marine,13-m,fairly common (chances are about 50%),57.922699991862,11.17006667455
Chirolophis ascanii,Sweden,"Kleven,""Smugglarviken""",Archip,marine,10-16m,occasional (usually not seen),58.351066652934,11.216183328628
Chirolophis ascanii,Sweden,"Knapeskären,SV-delenavdenvästligasteön",Island,marine,21-m,fairly common (chances are about 50%),57.820900026957,11.576683362325
Chirolophis ascanii,Sweden,"Köttstycket,NO-sida",Island,marine,14-32m,occasional (usually not seen),57.639049975077,11.615383338928
Chirolophis ascanii,Sweden,Kullaberg.Åkersberg,Shelf,marine,8-12m,occasional (usually not seen),56.297450002035,12.451749992371
Chirolophis ascanii,Sweden,"L:aVåpenskär,V-NVsida",Island,marine,14-11m,fairly common (chances are about 50%),58.584700012207,11.17006667455
Chirolophis ascanii,Sweden,"Ledskär,V-S-Ö",Sea,marine,15-13m,fairly common (chances are about 50%),58.570066642761,11.19978334109
Chirolophis ascanii,Sweden,"Namnlös(""Anders-sten"")",Island,marine,14-m,fairly common (chances are about 50%),57.942499987284,11.500883324941
Chirolophis ascanii,Sweden,"Orskär,SO-sida",Island,marine,16-15m,fairly common (chances are about 50%),57.997116661072,11.445383326213
Chirolophis ascanii,Sweden,"Räbbedjupet.""Lill-ön""västeromHärön",Archip,marine,18-m,common (usually seen),58.01544999977,11.477549997966
Chirolophis ascanii,Sweden,"Räbbedjupet.""Lill-ön""västeromHärön",Archip,marine,17-18m,common (usually seen),58.01544999977,11.477549997966
Chirolophis ascanii,Sweden,"Räbbedjupet.""Lill-ön""västeromHärön",Archip,marine,17-m,common (usually seen),58.01544999977,11.477549997966
Chirolophis ascanii,Sweden,"Räbbedjupet.""Lill-ön""västeromHärön",Archip,marine,17-22m,common (usually seen),57.01544999977,11.477549997966
Chirolophis ascanii,Sweden,"Räbbedjupet.""Lill-ön""västeromHärön.",Island,marine,18-m,occasional (usually not seen),58.015516666571,11.478499984741
Chirolophis ascanii,Sweden,"Räbbedjupet.""Lill-ön""västeromHärön.",Island,marine,17-20m,common (usually seen),58.015516666571,11.478499984741
Chirolophis ascanii,Sweden,"Räbbedjupet.""Lill-ön""västeromHärön.",Island,marine,17-18m,common (usually seen),58.015516666571,11.478499984741
Chirolophis ascanii,Sweden,"Räbbedjupet.""Lill-ön""västeromHärön.",Island,marine,17-18m,common (usually seen),57.015516666571,11.478499984741
Chirolophis ascanii,Sweden,"Räbbedjupet.""Pytte-ön""VSVSkaboholmen",Archip,marine,16-14m,common (usually seen),58.034200000763,11.48881667455
Chirolophis ascanii,Sweden,"Räbbedjupet.""Pytte-ön""VSVSkaboholmen",Archip,marine,17-14m,common (usually seen),58.034200000763,11.48881667455
Chirolophis ascanii,Sweden,Räbbedjupet.”Lill-ön”västeromHärön.,Island,marine,17-22m,common (usually seen),58.015516666571,11.478499984741
Chirolophis ascanii,Sweden,"Tjörnekalv,sydligastedelsamtVNV",Archip,marine,14-17m,common (usually seen),57.92878335317,11.567116673787
Chirolophis ascanii,Sweden,"Vinga,MidsommarvikenNNO-del",Island,marine,19-21m,fairly common (chances are about 50%),57.6349000295,11.609066645304
Chirolophis nugator,Canada,BarkleySoundnearChupPoint,Sea,marine,10-40m,occasional (usually not seen),48.972849973043,125.03360000054
Chitonotus pugetensis,,"BeclarraBay,offthewharf",,marine,3-5m,fairly common (chances are about 50%),49.3125,122.9288333257
Chitonotus pugetensis,,"BelcarraBay,nearHamberIsland",Bay,marine,12-16m,occasional (usually not seen),49.316666666667,122.91666666667
Chloroscombrus chrysurus,FrenchGuiana,BatturesduConnétable,,marine,,,4.9166666666667,51.958333333333
Chlorurus bowersi,Malaysia,"MalangRocks,TulaiIsland,nearTimoanIsland",Reef,marine,0-14m,,2.9019999821981,104.10250000159
Chlorurus bowersi,Malaysia,"MalangRocks,TulaiIsland,nearTiomanIsland",Reef,marine,0-14m,,2.9019999821981,104.10250000159
Chorisochismus dentex,SouthAfrica,KalkBay,Sea,marine,0-0m,fairly common (chances are about 50%),34.133333333333,18.45
Chromis atrilobata,CostaRica,"ParqueNacionalMarinoLasBaulas,offPlayaCarbon",,marine,2-4m,,10.45,85.866666666667
Chromis chromis,Greece,"PagasitikosGulf,KatoGatzea",Sea,marine,0-1m,abundant (always seen in some numbers),39.316666666667,23.1
Chromis chromis,Greece,"PagasitikosGulf,Lefokastro",Sea,marine,0-1m,abundant (always seen in some numbers),39.266666666667,23.166666666667
Chromis chromis,Greece,"PagasitikosGulf,Paou",Sea,marine,0-1m,abundant (always seen in some numbers),39.2,23.2
Chromis chromis,Italy,Patti,Bay,marine,,,38.133333333333,15.083333333333
Chromis cyanea,USA,"KeyLargo,Florida,MolassesReef",Reef,marine,4-12m,occasional,0.57700002193451,22.625999450684
Chromis enchrysurus,USA,"StetsonBank,Buoy3,GulfofMexico",Bank,marine,25-30m,scarce (very unlikely),28.166445000966,94.296526654561
Chromis lepidolepis,Indonesia,"ToyahPakeh,PenidaIsland,nearBali",Reef,marine,0-24m,,8.675,115.48333333333
Chromis margaritifer,Indonesia,"BatuNunggul,PenidaIsland,nearBali",Reef,marine,0-19m,,8.671666653951,115.5683333079
Chromis multilineata,USA,"Islamorada,Florida,ThePillars",Reef,marine,4-12m,scarce,7.8429999351501,17.643999099731
Chromis retrofasciata,Indonesia,"Indonesia,LembehStrait,NudiRetreat",Lagoon,marine,6-23m,scarce,1.4900166511536,125.23516666094
Chromis ternatensis,Indonesia,"BatuNunggul,PenidaIsland,nearBali",Reef,marine,0-18m,,8.671666653951,115.5683333079
Chromis ternatensis,Malaysia,"PirateReef,TiomanIsland",Reef,marine,0-10m,,2.8166666666667,104.15
Chromis viridis,Indonesia,"LembehStrait,several",Lagoon,marine,5-10m,,1.4317000071208,125.190716664
Chromis viridis,Timor-Leste,K41East,Reef,marine,0-5m,,8.471666653951,125.88333333333
Chrosomus erythrogaster,USA,"BlackWalnutCreek,nearByron,IL(USA)",River,freshwater,0-1m,occasional (usually not seen),42.087124999364,89.226923338572
Chrysiptera hemicyanea,Indonesia,"Indonesia,LembehStrait,AngelsWindow",Lagoon,marine,7-23m,scarce,1.4921833356222,125.26666666667
Chrysiptera traceyi,Indonesia,"Indonesia,LembehStrait,KapalIndah",Lagoon,marine,7-23m,scarce,1.4317000071208,125.190716664
Cichlasoma trimaculatum,Singapore,"KallangCanal,PandanCanal",River,brackish,0-1m,common (usually seen),1.3333333333333,103.85
Cichlasoma trimaculatum,Singapore,"PandanCanal,downstreamfromClementiroad",River,freshwater,1-1m,fairly common (chances are about 50%),1.3196666717529,103.77216669718
Ciliata mustela,Sweden,"Gäven,SO-S-sida",Sea,marine,19-m,scarce (very unlikely),58.270116678874,11.350883324941
Ciliata mustela,Sweden,"Skår,Gullmaren",Sea,marine,8-m,scarce (very unlikely),58.283333333333,11.533333333333
Cirrhilabrus beauperryi,Fiji,"Barrackreefbackslope,SavusavuBay,VanuaLevu",Reef,marine,5-10m,occasional (usually not seen),16.711599985759,179.2647166729
Cirrhitichthys aprinus,Indonesia,"Indonesia,LembehStrait,several",Lagoon,marine,15-27m,scarce,1.4641666730245,125.22780000369
Cirrhitichthys falco,Indonesia,"Amedwall,Bali",Reef,marine,0-14m,,8.3333333333333,115.65333334605
Cirrhitichthys falco,PapuaNewGuinea,"Quayle'sReef,BootlessBay",Reef,marine,0-23m,,9.575,147.3
Cirrhitus rivulatus,CostaRica,"ParqueNacionalMarinoLasBaulas,offPlayaCarbon",,marine,2-5m,common (usually seen),10.45,85.866666666667
Citharichthys platophrys,Mexico,"Guaymas,Sonora",,marine,,fairly common (chances are about 50%),27.55,110.83333333333
Citharichthys stigmaeus,,BelcarraBay,Bay,marine,12-15m,abundant (always seen in some numbers),49.316666666667,122.91666666667
Citharichthys stigmaeus,,"BelcarraBay,IndianArm",Bay,marine,2-3m,abundant (always seen in some numbers),49.316666666667,122.91666666667
Citharichthys stigmaeus,,offBelcarradock,Bay,marine,4-5m,abundant (always seen in some numbers),49.313000011444,122.92866668701
Citharichthys stigmaeus,,offBelcarradock,Bay,marine,4-5m,abundant (always seen in some numbers),49.313000011444,122.92866668701
Citharinus congicus,Tanzania,"RufijiRiverbetweenMlokaVillage&MwaseniVillage,Tanzania",River,freshwater,,common (usually seen),7.7548333485921,38.236499993006
Citharus linguatula,France,"Mandelieu,faceàl'embouchuredelaSiagne",Bay,marine,10-40m,,43.525,6.968333307902
Clarias fuscus,HongKong,AberdeenReservoir,Lake,freshwater,2-3m,occasional (usually not seen),22.333333333333,114.16666666667
Clarias gariepinus,Singapore,PandanCanal,River,freshwater,1-1m,occasional (usually not seen),1.3200000127157,103.77166665395
Clarias gariepinus,Singapore,PandanCanal,River,freshwater,1-m,occasional (usually not seen),1.3200000127157,103.77166665395
Clarias gariepinus,Singapore,"PandanCanal,downstreamfromClementiroad",River,freshwater,1-1m,common (usually seen),1.3196666717529,103.77216669718
Clepticus parrae,USA,"KeyLargo,Florida,MolassesReef",Reef,marine,4-12m,fairly common,0.57700002193451,22.625999450684
Clupea harengus,Germany,FlensborgFjordnorthernGermany,Sea,brackish,1-m,occasional (usually not seen),54.624166679382,9.856666692098
Clupea harengus,Germany,FlensborgFjordSchleswigHolsteinGermany,Archip,brackish,0-1m,occasional (usually not seen),54.83371664683,9.6256833394369
Clupea harengus,Germany,KielBightnearHoltenauSchleswig-Holstein,,brackish,1-2m,occasional (usually not seen),54.368050003052,10.151383336385
Clupea harengus,Germany,KielFjordGermany,Bay,marine,3-m,occasional (usually not seen),54.368050003052,10.151383336385
Clupea pallasii,,Belcarradock,Bay,marine,1-2m,common (usually seen),49.313000011444,122.92866668701
Cnidoglanis macrocephalus,Australia,sawtellbeach&bonvillehead,Sea,marine,0-1m,occasional (usually not seen),30.366666666667,153.1
Cobitis taenia,Netherlands,"Vinkenveen,TheNetherlands,island4rightsiteofsailingclub",Lake,freshwater,2-9m,occasional (usually not seen),54.45,4.95
Cobitis taenia,Sweden,"Sweden,Uppland,Vaxholm,Myrholmsmarenlake,beachnearbystrait",Lake,freshwater,0-1m,,59.384483337402,18.370116678874
Cochleoceps bicolor,Australia,"Melbourne,Australia",Sea,marine,30-35m,,38.333333333333,144.53333333333
Colomesus psittacus,FrenchGuiana,LesmamellesIslandnearCayenne,,marine,2-6m,,4.8833333333333,52.166666666667
Colossoma macropomum,PuertoRico,"SerrallesPonds,Ponce",Pond,freshwater,,fairly common (chances are about 50%),18.05,66.55
Conger conger,Spain,"SanVicentedeOGrove,RíadeArousa",Sea,marine,5-6m,fairly common (chances are about 50%),42.75,9.5166666666667
Conger wilsoni,UK,"AldwickBeach,2groinswestofRocks.",Sea,marine,20-30m,scarce (very unlikely),50.776666641235,0.70333334604899
Coradion altivelis,Thailand,"Phuket,KohPhiPhi",,marine,,,7.75,98.766666666667
Coradion chrysozonus,Indonesia,"LembehStrait,several",Lagoon,marine,20-27m,fairly common (chances are about 50%),1.4317000071208,125.190716664
Coregonus albula,Sweden,"LakeSommen,openwater",Lake,freshwater,,,59.133333333333,17.966666666667
Coris gaimard,Indonesia,"PenidaIsland(Tugu),nearBali",Reef,marine,0-22m,,8.671666653951,115.54166666667
Coris julis,Greece,"AegeanSea,Magnisia,Elitsa",Sea,marine,0-1m,fairly common (chances are about 50%),39.483333333333,23.116666666667
Coris julis,Greece,"AegeanSea,Magnisia,Kamari",Sea,marine,1-2m,common (usually seen),39.583333333333,22.933333333333
Coris julis,Greece,"AegeanSea,Magnisia,Mylopotamos",Sea,marine,1-2m,common (usually seen),39.366666666667,23.2
Coris julis,Greece,"AegeanSea,Magnisia,Platanias",Sea,marine,1-2m,common (usually seen),39.133333333333,23.266666666667
Coris julis,Greece,"AegeanSea,Magnisia,Paltsi",Sea,marine,1-2m,abundant (always seen in some numbers),39.25,23.316666666667
Coris julis,Greece,"PagasitikosGulf,Lefokastro",Sea,marine,0-1m,fairly common (chances are about 50%),39.266666666667,23.166666666667
Coris julis,Greece,"PagasitikosGulf,Milina",Sea,marine,0-1m,occasional (usually not seen),39.183333333333,23.216666666667
Coris julis,Greece,"PagasitikosGulf,Panagia",Sea,marine,0-1m,common (usually seen),39.116666666667,23.133333333333
Coris julis,Greece,"PagasitikosGulf,Paou",Sea,marine,0-1m,common (usually seen),39.2,23.2
Coryphaena hippurus,Guadeloupe,guadeloupe,,marine,,,16.5,61.5
Coryphaena hippurus,Mayotte,Mayotte,Sea,marine,0-10m,scarce (very unlikely),12.883333333333,45.366666666667
Coryphaena hippurus,Mexico,"GolfodeCalifornia,Sonora",Sea,marine,,common (usually seen),27.583333333333,111.66666666667
Coryphaena hippurus,Mexico,"GolfodeCalifornia,Sonora",Sea,marine,,common (usually seen),27.85,111.43333333333
Coryphaena hippurus,Philippines,"Subukin,SanJuan,Batangas",,marine,,,13.65,121.4
Coryphaena hippurus,Turkey,"CapeAlaca,Turgutreis,BodrumPeninsula",Archip,marine,10-15m,fairly common (chances are about 50%),36.978000005086,27.24483332634
Coryphaena hippurus,USA,"AtlanticOceaneastofPortCanaveral,Florida",Sea,marine,42-m,common (usually seen),28.334666665395,80.122833331426
Coryphopterus glaucofraenum,USA,"KeyLargo,Florida,SnapperLedge",Reef,marine,4-12m,occasional,58.5,25.75
Coryphopterus personatus,USA,"KeyLargo,Florida,SnapperLedge",Reef,marine,4-12m,occasional,58.5,25.75
Corythoichthys intestinalis,PapuaNewGuinea,"LionIsland,BootlessBay",Reef,marine,0-13m,,9.5333333333333,147.28333333333
Corythoichthys schultzi,Indonesia,"Indonesia,LembehStrait,Critterhunt",Lagoon,marine,6-23m,scarce,1.4600000063578,125.225
Corythoichthys schultzi,PapuaNewGuinea,"MVPaiII,BootlessBay",Reef,marine,0-24m,,9.5900000254313,147.28833332062
Couesius plumbeus,Canada,"Ontario,Mississauga,SheridanCreek,1kmu/sfrommouthatLakeOntario",River,freshwater,0-0m,,43.517233339945,79.61379998525
Crenimugil crenilabis,Indonesia,"Indonesia,LembehStrait,Kunkungan",Lagoon,marine,15-27m,scarce,1.4645499865214,125.22946666082
Cryptocentrus cinctus,India,offshore.Pondicherry,Sea,marine,18-18m,,11.766666666667,79.833333333333
Ctenochaetus striatus,Indonesia,"Indonesia,LembehStrait,Jikoyance",Lagoon,marine,15-27m,scarce,1.5276166598002,125.27795000076
Ctenolabrus rupestris,Portugal,Esposende,Reef,marine,-14m,common (usually seen),41.533333333333,8.8
Ctenolucius hujeta,Mexico,Tank,,freshwater,,,50.503333346049,132.34166666667
Ctenopharyngodon idella,PuertoRico,"BairoaRiver,Caguas",River,freshwater,,scarce (very unlikely),18.25,16.016666666667
Ctenopharyngodon idella,Turkey,EuphratesRivernearErzincan,River,freshwater,,common (usually seen),39.183333333333,38.6
Cyclopterus lumpus,Netherlands,BergscheDiepsluis,Bay,marine,5-10m,occasional (usually not seen),51.862000020345,4.2878666559855
Cymatogaster aggregata,,"BelcarraBay,IndianArm,offwharf",Bay,marine,2-3m,abundant (always seen in some numbers),49.3125,122.9288333257
Cymatogaster aggregata,,Belcarrawharf,Bay,marine,1-3m,abundant (always seen in some numbers),49.316666666667,122.91666666667
Cymatogaster aggregata,,BelcarraWharf,Bay,marine,1-2m,abundant (always seen in some numbers),49.316666666667,122.91666666667
Cymbacephalus beauforti,PapuaNewGuinea,"EndBommie,BootlessBay",Reef,marine,0-19m,,9.5900000254313,147.27000001272
Cynoscion acoupa,FrenchGuiana,DEVILISLAND,Island,marine,8-15m,common (usually seen),5.2833333333333,52.583333333333
Cynoscion acoupa,FrenchGuiana,LaMereIslandnearCayenne,,marine,,,4.9,52.183333333333
Cynoscion nebulosus,USA,"IndianRiverLagoon,FortPierce,FL",Lagoon,marine,3-9m,common (usually seen),27.456000010172,80.309499994914
Cyprinocirrhites polyactis,Indonesia,"Indonesia,LembehStrait,Critterhunt",Lagoon,marine,15-27m,scarce,1.4600000063578,125.225
Cyprinus carpio,Belgium,"OudeLeie,Deinze",Pond,freshwater,-2m,abundant (always seen in some numbers),50.983333333333,3.5333333333333
Cyprinus carpio,PuertoRico,"Carite,GuajatacaandLoizaReservoirs",Lake,freshwater,,scarce (very unlikely),18.05,66.083333333333
Cyttopsis rosea,Ireland,"GrandSole,ICESVIIj",Sea,marine,470-570m,occasional (usually not seen),50.133333333333,11.133333333333
Dactylopterus volitans,Algeria,"Jijel""laCrique""",,marine,5-6m,common (usually seen),36.816666666667,5.7
Dactylopterus volitans,Bahamas,Offbeachareaonbrokenrock/lightgrassbottom,Sea,marine,3-1m,scarce (very unlikely),31.566666666667,77.066666666667
Dactylopterus volitans,Greece,"Memibeach,Koroni,Peloponnese,Greece",Shelf,marine,5-10m,occasional (usually not seen),36.779999987284,21.936666679382
Dactylopterus volitans,Grenada,"GrenadaIsland,mornerougebay",,marine,-4m,,12.018333333731,61.771500015259
Dactylopterus volitans,Spain,salobreña,Sea,marine,1-3m,scarce (very unlikely),36.716666666667,3.5666666666667
Dactylopterus volitans,Turkey,"Beymelek,Demre,Antalya",,marine,,,4107.2166666667,547.36666666667
Dalatias licha,Spain,Benicarlo(Spain),Sea,marine,300-500m,occasional (usually not seen),41.95,2.2833333333333
Dascyllus aruanus,Indonesia,"Indonesia,LembehStrait,Critterhunt",Lagoon,marine,5-15m,fariily common,1.4600000063578,125.225
Dascyllus melanurus,Malaysia,"MonkeyBay,TiomanIsland",Reef,marine,0-5m,,2.85,104.15166667302
Dascyllus reticulatus,Indonesia,"Indonesia,LembehStrait,several",Lagoon,marine,6-23m,fairly common,1.5088166554769,125.2685500145
Dascyllus reticulatus,Indonesia,"SDPoint,PenidaIsland,nearBali",Reef,marine,0-17m,,8.668333307902,115.49166666667
Dascyllus reticulatus,Malaysia,"MalangRocks,TulaiIsland,nearTimoanIsland",Reef,marine,0-14m,,2.9019999821981,104.10250000159
Dascyllus reticulatus,PapuaNewGuinea,"MVPacificGas,BootlessBay",Reef,marine,0-33m,,9.571666653951,147.27666667302
Dascyllus trimaculatus,Indonesia,"CrystalBay,PenidaIsland,nearBali",Reef,marine,0-22m,,8.7083333333333,115.45333334605
Dascyllus trimaculatus,Indonesia,"Indonesia,LembehStrait,several",Lagoon,marine,6-23m,common,1.5088166554769,125.2685500145
Dascyllus trimaculatus,PapuaNewGuinea,"LionIsland,BootlessBay",Reef,marine,0-13m,,9.5333333333333,147.28333333333
Dascyllus trimaculatus,PapuaNewGuinea,"MVPacificGas,BootlessBay",Reef,marine,0-33m,,9.571666653951,147.27666667302
Dascyllus trimaculatus,PapuaNewGuinea,"MVPaiII,BootlessBay",Reef,marine,0-24m,,9.5900000254313,147.28833332062
Dascyllus trimaculatus,PapuaNewGuinea,"Quayle'sReef,BootlessBay",Reef,marine,0-23m,,9.575,147.3
Datnioides polota,Indonesia,"Surabaya,Indonesiaboughtfromlocalfishshop",,brackish,,occasional (usually not seen),7.0333333333333,112.83333333333
Dendrochirus biocellatus,NorthMarianas,LauLauBay-Saipan,Bay,marine,6-10m,scarce (very unlikely),15.15,145.75
Dendrochirus biocellatus,Thailand,"EastofEden,Island7,SimilanIslands,Thailand",Reef,marine,25-28m,,8.5833333333333,97.633333333333
Dendrochirus brachypterus,Indonesia,"Indonesia,LembehStrait,several",Lagoon,marine,15-27m,fairly common,1.4771666526794,125.23516666094
Dendrochirus zebra,Indonesia,"Indonesia,LembehStrait,several",Lagoon,marine,15-27m,fairly common,1.4600000063578,125.225
Dendrophysa russelii,Singapore,KelongoffLimChuKang,Bay,brackish,5-10m,fairly common (chances are about 50%),1.3666666666667,103.8
Dentex angolensis,Mauritania,Mauritanianwaters,Sea,marine,,,18.5,16.5
Dentex canariensis,Spain,ElPuertodeSantaMaría(Cádiz),Bay,marine,,,36.583333333333,6.25
Dentex dentex,Algeria,Jijel,,marine,2-3m,common (usually seen),36.7,5.8166666666667
Dentex dentex,Italy,"RioMarina,ElbaIsland",Bay,marine,3-6m,fairly common (chances are about 50%),42.833333333333,10.5
Dentex dentex,Turkey,"Ildırbay,Çeşme,İzmir,Turkey",Bay,marine,2-4m,fairly common (chances are about 50%),38.345833333333,26.390333334605
Dentex gibbosus,Portugal,Portugal-Madeira-Machico,Sea,marine,5-7m,occasional (usually not seen),32.698066647847,16.762666638692
Dentex gibbosus,Turkey,"nearuzunadaIsland,IzmirBay",Bay,marine,18-36m,occasional (usually not seen),38.5,26.666666666667
Diademichthys lineatus,PapuaNewGuinea,"MVTuart,LionIsland,BootlessBay",Reef,marine,0-13m,,9.5333333333333,147.27166665395
Diagramma pictum,Indonesia,"Indonesia,LembehStrait,RetakLarry",Lagoon,marine,20-27m,scarce,1.4905166625977,125.23688333829
Dicentrarchus labrax,Algeria,"Andreu,Jijel",,marine,,,36.783333333333,5.65
Dicentrarchus labrax,Netherlands,"Wemeldinge,Oosterschelde",Shelf,marine,3-20m,abundant (always seen in some numbers),51.533333333333,3.9666666666667
Dicentrarchus labrax,Spain,PuertodeSantaMaría(Spain),Bay,marine,1-4m,common (usually seen),36.6,6.2166666666667
Dicentrarchus punctatus,Spain,PuertodeSantaMaría(Spain),Bay,marine,1-4m,common (usually seen),36.6,6.2166666666667
Dichotomyctere nigroviridis,Singapore,Siglapcanal,River,brackish,1-1m,common (usually seen),1.3183333396912,103.91500002543
Dicotylichthys punctulatus,Australia,"HayesInlet,Queensland",Bay,marine,0-1m,occasional (usually not seen),27.116666666667,153.2
Diodon holocanthus,CostaRica,"ParqueNacionalMarinoLasBaulas,offPlayaCarbon",,marine,1-4m,common (usually seen),10.45,85.866666666667
Diodon holocanthus,USA,"KeyLargo,Florida,SnapperLedge",Reef,marine,4-12m,scarce,58.5,25.75
Diodon hystrix,USA,"KeyLargo,Florida,SnapperLedge",Reef,marine,4-12m,occasional,58.5,25.75
Diodon liturosus,Indonesia,"Indonesia,LembehStrait,NudiFalls",Lagoon,marine,6-23m,scarce,1.4641666730245,125.22780000369
Diodon liturosus,Maldives,BiyadhooIslandHousereef,Reef,marine,10-25m,occasional (usually not seen),3.9233666737874,73.458033339183
Diodon liturosus,Maldives,BiyadhooIslandHousereef,Reef,marine,10-25m,occasional (usually not seen),3.9233666737874,73.458033339183
Diodon liturosus,Maldives,BiyadhooIslandHousereef,Reef,marine,10-25m,occasional (usually not seen),3.9233666737874,73.458033339183
Diodon liturosus,Maldives,BiyadhooIslandHousereef,Reef,marine,10-25m,occasional (usually not seen),3.9233666737874,73.458033339183
Diplectrum bivittatum,VirginIs.(US),"GreatBay,St.Thomas,USVI",Bay,marine,50-m,occasional (usually not seen),18.321666653951,64.836666679382
Diplectrum bivittatum,VirginIs.(US),"GreatBay,St.Thomas,USVI",,marine,,,18.321666653951,64.836666679382
Diplectrum bivittatum,VirginIs.(US),"SecretHarbour-StThomas,USVI",Bay,marine,3-m,occasional (usually not seen),18.333333333333,64.966666666667
Diplodus annularis,Greece,"AegeanSea,Magnisia,Elitsa",Sea,marine,0-1m,occasional (usually not seen),39.483333333333,23.116666666667
Diplodus annularis,Greece,"AegeanSea,Magnisia,Platanias",Sea,marine,1-2m,abundant (always seen in some numbers),39.133333333333,23.266666666667
Diplodus annularis,Greece,"DiavlosOreon,NisosEvvia,Oreoi",Bay,marine,1-2m,abundant (always seen in some numbers),38.933333333333,23.083333333333
Diplodus annularis,Greece,"PagasitikosGulf,Afissos",Sea,marine,0-1m,common (usually seen),39.283333333333,23.15
Diplodus annularis,Greece,"PagasitikosGulf,Horto",Sea,marine,0-1m,common (usually seen),39.2,23.216666666667
Diplodus annularis,Greece,"PagasitikosGulf,K.Gatzea",Sea,marine,0-1m,common (usually seen),39.316666666667,23.1
Diplodus annularis,Greece,"PagasitikosGulf,Kalamos",Sea,marine,0-1m,abundant (always seen in some numbers),39.233333333333,23.183333333333
Diplodus annularis,Greece,"PagasitikosGulf,KatoGatzea",Sea,marine,0-1m,fairly common (chances are about 50%),39.316666666667,23.1
Diplodus annularis,Greece,"PagasitikosGulf,Lefokastro",Sea,marine,0-1m,abundant (always seen in some numbers),39.266666666667,23.166666666667
Diplodus annularis,Greece,"PagasitikosGulf,Malaki",Sea,marine,0-1m,abundant (always seen in some numbers),39.316666666667,23.083333333333
Diplodus annularis,Greece,"PagasitikosGulf,Panagia",Sea,marine,0-1m,occasional (usually not seen),39.116666666667,23.133333333333
Diplodus annularis,Greece,"PagasitikosGulf,Paou",Sea,marine,0-1m,occasional (usually not seen),39.2,23.2
Diplodus annularis,Greece,"PagasitikosGulf,Soutrali",Sea,marine,0-1m,fairly common (chances are about 50%),39.333333333333,23.016666666667
Diplodus cervinus,Algeria,Jijel,,marine,4-5m,fairly common (chances are about 50%),36.816666666667,6.7
Diplodus cervinus,Algeria,laCriqueJijel,,marine,,,36.7,5.8166666666667
Diplodus holbrookii,USA,BathtubReef,Reef,marine,2-4m,fairly common (chances are about 50%),27.183333333333,80.15
Diplodus puntazzo,Algeria,Jijel,,marine,,occasional (usually not seen),36.816666666667,5.7
Diplodus puntazzo,Turkey,"westernpartofUzunadaIsland,IzmirBay",Bay,marine,12-35m,abundant (always seen in some numbers),38.5,26.666666666667
Diplodus sargus,Algeria,Jijel,,marine,,abundant (always seen in some numbers),36.7,5.8166666666667
Diplodus sargus,CanaryIs.,GranCanaria,,marine,,,28.166666666667,15.466666666667
Diplodus sargus,Greece,"AegeanSea,Magnisia,Paltsi",Sea,marine,1-2m,occasional (usually not seen),39.25,23.316666666667
Diplodus sargus,Greece,"PagasitikosGulf,KatoGatzea",Sea,marine,0-1m,occasional (usually not seen),39.316666666667,23.1
Diplodus sargus,Greece,"PagasitikosGulf,KatoGatzea",Sea,marine,0-1m,fairly common (chances are about 50%),39.316666666667,23.1
Diplodus sargus,Greece,"PagasitikosGulf,Malaki",Sea,marine,0-1m,occasional (usually not seen),39.316666666667,23.083333333333
Diplodus sargus,Turkey,"nearuzunada,IzmirBay",Bay,marine,12-m,common (usually seen),38.483333333333,26.666666666667
Diplodus vulgaris,Greece,"PagasitikosGulf,Agria",Sea,marine,0-1m,fairly common (chances are about 50%),39.333333333333,23.016666666667
Diplodus vulgaris,Greece,"PagasitikosGulf,Lefokastro",Sea,marine,0-1m,fairly common (chances are about 50%),39.266666666667,23.166666666667
Diplodus vulgaris,Greece,"PagasitikosGulf,Panagia",Sea,marine,0-1m,occasional (usually not seen),39.116666666667,23.133333333333
Diplodus vulgaris,Greece,"PagasitikosGulf,Paou",Sea,marine,0-1m,common (usually seen),39.2,23.2
Diplodus vulgaris,Turkey,"Ildırbay,Çeşme,İzmir,Turkey",Bay,marine,40-45m,abundant (always seen in some numbers),38.378333346049,26.373333326976
Diproctacanthus xanthurus,Malaysia,"MonkeyBay,TiomanIsland",Reef,marine,0-5m,,2.85,104.15166667302
Diproctacanthus xanthurus,PapuaNewGuinea,"Susie'sBommie,BootlessBay",Reef,marine,0-28m,abundant (always seen in some numbers),9.571666653951,147.25166667302
Diretmoides pauciradiatus,Tahiti,Tahiti,Sea,marine,,,729.8,699.88333333333
Dischistodus melanotus,Malaysia,"MonkeyBay,TiomanIsland",Reef,marine,0-5m,,2.85,104.15166667302
Doratonotus megalepis,USA,"DeerfieldLedge,DeerfieldBeach,Florida",Sea,marine,2-m,scarce (very unlikely),26.315166664123,80.059999998411
Doryrhamphus abbreviatus,Mozambique,"Vilankulo,ChannelinfrontofDolphinDhow",Reef,marine,-3m,occasional (usually not seen),22.000999999978,35.321666653951
Drepane africana,Gambia,"2kmoffshoreCapePoint,Gambia",Sea,marine,-7m,,13.5,16.666666666667
Drepane punctata,India,"Atfishaggregatingdevice(""ARRF20"").",Sea,marine,20-m,occasional (usually not seen),11.921500015259,79.874333318075
Drepane punctata,Singapore,KelongoffLimChuKang,,brackish,8-10m,common (usually seen),1.3666666666667,103.8
Drepane punctata,Singapore,"PasirRisPark,offbreakwater",Sea,brackish,4-6m,common (usually seen),1.3666666666667,103.8
Dules auriga,Argentina,Claromeco,Sea,marine,21-22m,occasional (usually not seen),38.916666666667,60.083333333333
Dunckerocampus dactyliophorus,Indonesia,"Indonesia,LembehStrait,TK2",Lagoon,marine,6-23m,scarce,1.4921833356222,125.23854999542
Echeneis naucrates,Tunisia,Djerba(GulfofGabes),Sea,marine,12-14m,scarce (very unlikely),33.707583363851,11.080966663361
Echeneis naucrates,USA,"Islamorada,Florida,ThePillars",Reef,marine,4-12m,scarce,7.8429999351501,17.643999099731
Echiichthys vipera,Italy,Calambrone,,marine,,fairly common (chances are about 50%),43.983333333333,10.483333333333
Echinorhinus cookei,ElSalvador,EntrePuertodeAcajutlayPuertodeLaLibertad,Sea,marine,-357m,,12.863833363851,89.603000005086
Ecsenius bimaculatus,Indonesia,"Luwuk,Sulawesi-Indonesia(infrontofMaleoCottage)",Reef,marine,3-5m,,1.0666666666667,122.73333333333
Elacatinus evelynae,PuertoRico,"Culebra,PuertoRico",Reef,marine,14-20m,scarce,18.493000030518,13.83899974823
Elacatinus oceanops,USA,"KeyLargo,Florida,SnapperLedge",Reef,marine,4-12m,occasional,58.5,25.75
Elagatis bipinnulata,AscensionI.,GeorgetownPierareaandLongBeach,Island,marine,1-12m,abundant (always seen in some numbers),7.9666666666667,14.4
Elagatis bipinnulata,AscensionI.,GeorgetownPierareaandLongBeach,Island,marine,1-12m,abundant (always seen in some numbers),7.9666666666667,14.4
Elagatis bipinnulata,Philippines,"SanJuan,Batangas",,marine,,,13.783333333333,121.46666666667
Eleutheronema tetradactylum,Philippines,"Marina,Manilabay",Sea,brackish,3-5m,common (usually seen),14.535999997457,120.98816668193
Ellochelon vaigiensis,Indonesia,"Indonesia,LembehStrait,Kunkungan",Lagoon,marine,15-27m,common,1.4645499865214,125.22946666082
Elops saurus,FrenchGuiana,DEVILISLAND,Island,marine,3-6m,occasional (usually not seen),5.2833333333333,52.583333333333
Elops saurus,FrenchGuiana,DEVILISLAND,Island,marine,10-15m,occasional (usually not seen),5.2833333333333,52.583333333333
Elops senegalensis,Senegal,SenegalDakar2nmeastofGoreeisland,Bay,marine,0-0m,,14.666666666667,17.333333333333
Enchelycore pardalis,Tanzania,"KankardiaReef,offDaresSalaam",Reef,marine,12-14m,occasional (usually not seen),6.75,39.316666666667
Entomacrodus lighti,HongKong,"HalfMoonBay,SaiKung",Bay,marine,1-2m,,22.35,114.28333333333
Entomacrodus vermiculatus,India,"Goa,India",Reef,marine,,occasional (usually not seen),15.604333305359,73.892166646322
Ephippion guttifer,Gambia,"4kmoffshoreBanjul,Gambia",Sea,marine,-7m,,13.55,16.633333333333
Epibulus insidiator,Malaysia,"MonkeyBay,TiomanIsland",Reef,marine,0-5m,,2.85,104.15166667302
Epibulus insidiator,Malaysia,"SoyakIsland,nearTiomanIsland",Reef,marine,0-12m,,2.871666653951,104.14166666667
Epinephelus adscensionis,PuertoRico,MonaIsland,Reef,marine,18-20m,fairly common (chances are about 50%),18.041666666667,67.891666666667
Epinephelus analogus,Mexico,"Guaymas,Sonora",,marine,,fairly common (chances are about 50%),27.583333333333,110.81666666667
Epinephelus caninus,Italy,liguriansea,Bank,marine,200-150m,,43.583333333333,9.45
Epinephelus caninus,Italy,liguriansea,Bank,marine,,,43.583333333333,9.45
Epinephelus caninus,Spain,SecodeMotrilenelmardealboran,Sea,marine,287-m,scarce (very unlikely),36.160000006358,3.706666692098
Epinephelus costae,Algeria,Jijel,,marine,1-2m,common (usually seen),36.7,5.8166666666667
Epinephelus diacanthus,Yemen,offshore,Sea,marine,-100m,common (usually seen),14.569166692098,49.118500002225
Epinephelus fasciatus,Indonesia,"Amedwall,Bali",Reef,marine,0-14m,,8.3333333333333,115.65333334605
Epinephelus fasciatus,Indonesia,"Indonesia,LembehStrait,MagicCrack",Lagoon,marine,15-27m,scarce,1.4903499921163,125.23688333829
Epinephelus fasciatus,Philippines,PuertoGalera,,marine,,,13.516666666667,120.98333333333
Epinephelus faveatus,Canada,"KohNangyuan,Thailand",Island,marine,,,10.1,99.8
Epinephelus guttatus,PuertoRico,eastesideofMonaIsland,Sea,marine,10-15m,,18.05,67.85
Epinephelus guttatus,PuertoRico,SouthshoreofMonaIsland,Reef,marine,19-22m,common (usually seen),67.891666666667,18.048333334923
Epinephelus guttatus,USA,"KeyLargo,Florida,MinnowCaves",Reef,marine,4-12m,occasional,7.9200000762939,17.709999084473
Epinephelus itajara,Brazil,"Artificialsreefs,Parana,Brazil",Countr,marine,-15m,common (usually seen),25.733333333333,48.316666666667
Epinephelus itajara,FrenchGuiana,DEVILISLAND,Island,marine,4-8m,common (usually seen),5.2833333333333,52.583333333333
Epinephelus lanceolatus,Iran,"Iran,Baluchestan,Chabahar",Sea,marine,,,24.95,61.983333333333
Epinephelus lanceolatus,PapuaNewGuinea,"MVPacificGas,BootlessBay",Reef,marine,0-33m,,9.571666653951,147.27666667302
Epinephelus malabaricus,Philippines,"Ticalan,SanJuan,Batangas",,marine,,,13.783333333333,121.46666666667
Epinephelus marginatus,France,"Centuri,CapoCorso",Bay,marine,2-10m,occasional (usually not seen),42.916666666667,9.5
Epinephelus marginatus,France,"Centuri,CapoCorso",Bay,marine,3-10m,occasional (usually not seen),42.916666666667,9.5
Epinephelus marginatus,France,LavezziMerouville,Island,marine,30-31m,abundant (always seen in some numbers),40.166666666667,9.8333333333333
Epinephelus marginatus,Greece,Aegeansea,Sea,marine,32-37m,occasional (usually not seen),37.75,23.866666666667
Epinephelus marginatus,Italy,SeccadiSpargi,Bank,marine,30-m,abundant (always seen in some numbers),41.26096666654,9.334700012207
Epinephelus marginatus,Spain,"CaladelMuerto,CabodePalos,Spain",Bay,marine,8-15m,occasional (usually not seen),37.632666651408,0.68966668446859
Epinephelus merra,Indonesia,"Indonesia,LembehStrait,Kungkungan",Lagoon,marine,15-27m,scarce,1.4645499865214,125.22946666082
Epinephelus ongus,Indonesia,"Indonesia,LembehStrait,KapalIndah",Lagoon,marine,15-27m,scarce,1.4317000071208,125.190716664
Epinephelus striatus,PuertoRico,"Culebra,PuertoRico",Reef,marine,10-15m,scarce,17.954000473022,19.895000457764
Epinephelus striatus,USA,"KeyLargo,Florida,MinnowCaves",Reef,marine,4-12m,occasional,7.9200000762939,17.709999084473
Equetus punctatus,Barbados,"OldFort,CarlisleBay,Barbados,WI",Sea,marine,18-20m,occasional (usually not seen),13.166666666667,59.533333333333
Equetus punctatus,USA,"KeyLargo,Florida,SnapperLedge",Reef,marine,4-12m,occasional,58.5,25.75
Eremophilus mutisii,Colombia,Bogotáriverbasin;Neusalagoon,,freshwater,,common (usually seen),5.2181666692098,1402.5666666667
Escualosa thoracata,Bangladesh,Bangladesh,Lake,brackish,3-1m,fairly common (chances are about 50%),50.5,132.33333333333
Esox lucius,France,Paris,,freshwater,,fairly common (chances are about 50%),48.866666666667,2.3333333333333
Esox lucius,Russia,Mokshariver(Volgabasin),River,freshwater,0-2m,,54.166666666667,44.166666666667
Esox lucius,Sweden,"Rönneby,SouthofSweden",Bay,brackish,2-5m,common (usually seen),56.459499994914,15.300500011444
Esox lucius,USA,"BostwickLake,westend",Lake,freshwater,2-3m,fairly common (chances are about 50%),43.088000003497,85.455166657766
Esox niger,USA,BrewertonNY500feetfromboatlaunch(straightout),Lake,freshwater,18-m,occasional (usually not seen),46.966666666667,78.35
Etheostoma flabellare,USA,"BlackWalnutCreek,nearByron,IL(USA)",River,freshwater,0-1m,common (usually seen),42.087124999364,89.226909001668
Etheostoma nigrum,USA,"BlackWalnutCreek,nearByron,IL(USA)",River,freshwater,0-1m,common (usually seen),42.087124999364,89.226909001668
Etroplus suratensis,Singapore,"Shelteredcoasts,mangroves,tidalrivers,reservoirsandponds",River,brackish,0-3m,abundant (always seen in some numbers),1.3766666730245,103.9
Eucinostomus gula,USA,"IndianRiverLagoon,FortPierce,FL",Lagoon,marine,1-10m,common (usually seen),27.456000010172,80.309499994914
Eurypegasus draconis,Indonesia,"Indonesia,LembehStrait,AwShucks",Lagoon,marine,6-23m,scarce,1.4645499865214,125.22946666082
Eurypegasus draconis,PapuaNewGuinea,"NearLoloataIsland,BootlessBay",,marine,-3m,,9.5333333333333,147.28333333333
Eutrigla gurnardus,Denmark,Kattegat,Shelf,brackish,20-50m,,57.333333333333,11.183333333333
Eutrigla gurnardus,Sweden,"Gullmarsfjorden,Hällebäck",Sea,marine,17-m,occasional (usually not seen),58.346149984995,11.588466644287
Eutrigla gurnardus,Sweden,"Gullmarsfjorden,Hällebäck",Sea,marine,31-m,occasional (usually not seen),58.346149984995,11.588466644287
Eutrigla gurnardus,Sweden,"Gullmarsfjorden,Hällebäck",Sea,marine,17-16m,scarce (very unlikely),58.346149984995,11.588466644287
Eutrigla gurnardus,Sweden,"Gullmarsfjorden,Hällebäck",Sea,marine,0-39m,scarce (very unlikely),58.346149984995,11.588466644287
Eutrigla gurnardus,Sweden,Gullmarsfjorden.Alsbäck,Sea,marine,0-29m,scarce (very unlikely),58.32223332723,11.533516693115
Eutrigla gurnardus,Sweden,"Gullmarsfjorden.Skår,""sjöboden-höger""",Sea,marine,0-31m,scarce (very unlikely),58.297800000509,11.531883335114
Eutrigla gurnardus,Sweden,"Gullmarsfjorden.Skår,""sjöboden-höger"".",Sea,marine,33-m,scarce (very unlikely),58.297800000509,11.531883335114
Exyrias belissimus,Indonesia,"Indonesia,LembehStrait,KapalIndah",Lagoon,marine,15-27m,scarce,1.4317000071208,125.190716664
Fistularia commersonii,Italy,Sardegna-golfodiOristano,Island,marine,3-30m,scarce (very unlikely),39.9,8.5166666666667
Fistularia commersonii,Italy,Sardegna-Villasimius,Island,marine,1-12m,scarce (very unlikely),39.233333333333,9.1166666666667
Foa fo,Spain,Canarias,Archip,marine,5-9m,,28.266666666667,16.383333333333
Forcipiger flavissimus,Indonesia,"CrystalBay,PenidaIsland,nearBali",Reef,marine,0-22m,,8.7083333333333,115.45333334605
Forcipiger flavissimus,Philippines,"MonkeyBeach,PuertoGalera,Or.Mindoro",Reef,marine,14-m,common (usually seen),65.016666666667,217.5
Fundulus dispar,USA,"FingerLakesStatePark,BooneCo.,MO,10milesnorthofColumbia,MO",Lake,freshwater,,,39.088294998805,92.315870984395
Fundulus jenkinsi,USA,"BayouLacombeatLakePonchartrain,LAHwy434,St.TammanyParishLA",Bank,brackish,0-m,common (usually seen),30.25,90.5
Fundulus jenkinsi,USA,"BayouLacombeatLakePonchartrain,LAHwy434,St.TammanyParishLA",Bank,brackish,0-m,common (usually seen),30.25,90.5
Fundulus jenkinsi,USA,"GrandBayNationalEstuarineResearchReserve,JacksonCounty,Mississippi",,brackish,0-0m,fairly common (chances are about 50%),30.412216663361,88.403616650899
Galeus melastomus,Spain,Benicarlo(Spain),Sea,marine,200-500m,occasional (usually not seen),40.195499992371,1.1285000006358
Gasterosteus aculeatus,USA,"YakimaRiver,sidechannel",River,freshwater,0-0m,occasional (usually not seen),46.565000025431,120.47133334478
Gempylus serpens,USA,"MossLanding,Calif.nearoldpier",Sea,marine,,occasional (usually not seen),36.802333323161,121.78683331807
Genyatremus luteus,FrenchGuiana,Kourouriverembouchure,River,brackish,3-6m,common (usually seen),5.1666666666667,52.666666666667
Genyatremus luteus,FrenchGuiana,LesMamellesIslandnearCayenne,,marine,2-6m,,4.8833333333333,52.166666666667
Geophagus brasiliensis,Brazil,RioItapemirimNorteDireito,River,freshwater,1-2m,common (usually seen),20.7,41.5
Geophagus surinamensis,Singapore,"WhampoaStream,McRitchieReservoir",Pond,freshwater,0-1m,common (usually seen),1.3399999936422,103.83333333333
Gerres cinereus,USA,"IndianRiverLagoon,FortPierce,FL",Lagoon,marine,1-10m,common (usually seen),27.456000010172,80.309499994914
Ginglymostoma cirratum,CapeVerde,"SaoFelipe,onlavabeach",Sea,marine,3-m,common (usually seen),16.833333333333,24.5
Ginglymostoma cirratum,USA,"KeyLargo,Florida,MolassesReef",Reef,marine,4-12m,occasional,0.57700002193451,22.625999450684
Gnathanodon speciosus,Australia,"MoretonBay,StradbrokeIsland",Bay,marine,1-2m,fairly common (chances are about 50%),27.5,153.33333333333
Gnathanodon speciosus,CostaRica,"ParqueNacionalMarinoLasBaulas,offPlayaCarbon",,marine,3-4m,,10.45,85.866666666667
Gnathodentex aureolineatus,Indonesia,"BatuNunggul,PenidaIsland,nearBali",Reef,marine,0-19m,,8.671666653951,115.5683333079
Gnatholepis thompsoni,USA,"Islamorada,Florida,ThePillars",Reef,marine,4-12m,fairly common,7.8429999351501,17.643999099731
Gobiesox maeandricus,USA,StearnsWharf,Reef,marine,2-3m,fairly common (chances are about 50%),34.4,119.68333333333
Gobius cobitis,France,StAygulf,,marine,,common (usually seen),43.383333333333,6.7166666666667
Gobius cobitis,UK,"LesEcrehous,North",Reef,marine,-2m,occasional (usually not seen),49.298333326976,2.9616666793823
Gobius cruentatus,Croatia,Kaštelanskizaljev,Bay,marine,-18m,,43.504666678111,16.385333347321
Gobius cruentatus,Italy,"RioMarina,ElbaIsland",Bay,marine,3-7m,common (usually seen),42.883333333333,10.5
Gobius gasteveni,Portugal,"Setúbal,PortinhodaArrábida",,marine,-6m,occasional (usually not seen),38.466666666667,8.9666666666667
Gobius paganellus,Algeria,Jijel,,marine,2-3m,,36.7,5.8166666666667
Gobius roulei,Croatia,"Mihurichousereef,Selce,Croatia",Sea,marine,8-12m,,45.166666666667,15.5
Gomphosus varius,Malaysia,"MonkeyBay,TiomanIsland",Reef,marine,0-5m,,2.85,104.15166667302
Gomphosus varius,WallisFutuna,Alofi,,marine,1-m,,14.283333333333,178.11666666667
Gonioplectrus hispanus,USA,"25milesSouthofPensacola,FL",Shelf,marine,60-75m,scarce (very unlikely),29.9,87.2
Gramma loreto,CaymanIs.,"OffSunsetHouse,GrandCayman",Island,marine,25-35m,abundant (always seen in some numbers),19.35,81.283333333333
Grammonus ater,Spain,SantacruzdeTenerife,Sea,marine,5-10m,occasional (usually not seen),28.266666666667,16.383333333333
Grundulus bogotensis,Colombia,ríoBogotá-MunicipiodeSuesca,River,freshwater,1-1m,common (usually seen),5.05,73.816666666667
Gymnocephalus cernua,Russia,Mokshariver(Volgabasin),River,freshwater,1-2m,,54.666666666667,43.733333333333
Gymnosarda unicolor,Egypt,MarsaShagra,Reef,marine,,occasional (usually not seen),25.243333339691,34.798333358765
Gymnothorax funebris,USA,"KeyLargo,Florida,MolassesReef",Reef,marine,4-12m,scarce,0.57700002193451,22.625999450684
Gymnothorax javanicus,Malaysia,"ChebehIsland,nearTiomanIsland",Reef,marine,0-24m,,2.9266666412354,104.09166666667
Gymnothorax javanicus,Malaysia,"SoyakIsland,nearTiomanIsland",Reef,marine,0-12m,,2.871666653951,104.14166666667
Gymnothorax miliaris,USA,"KeyLargo,Florida,SnapperLedge",Reef,marine,4-12m,scarce,58.5,25.75
Gymnothorax moringa,NethAntilles,"NetherlandsAntilles,Curacao,PortoMarie",Bay,marine,4-6m,common (usually seen),12.216666666667,69.083333333333
Gymnothorax moringa,NethAntilles,"NetherlandsAntilles,Curacao,PortoMarie",Bay,marine,3-5m,common (usually seen),12.216666666667,69.083333333333
Gymnothorax porphyreus,Peru,"Pucusana,elcarbon",Reef,marine,5-6m,common (usually seen),12.433333333333,76.783333333333
Haemulon aurolineatum,PuertoRico,"Culebra,PuertoRico",Reef,marine,10-15m,common,19.721000671387,19.948999404907
Haemulon aurolineatum,USA,"KeyLargo,Florida,MinnowCaves",Reef,marine,4-12m,occasional,7.9200000762939,17.709999084473
Haemulon carbonarium,USA,"KeyLargo,Florida,SnapperLedge",Reef,marine,4-12m,occasional,58.5,25.75
Haemulon chrysargyreum,USA,"KeyLargo,Florida,SnapperLedge",Reef,marine,4-12m,occasional,58.5,25.75
Haemulon flavolineatum,USA,"KeyLargo,Florida,MolassesReef",Reef,marine,4-12m,fairly common,0.57700002193451,22.625999450684
Haemulon macrostomum,USA,"KeyLargo,Florida,MinnowCaves",Reef,marine,4-12m,scarce,7.9200000762939,17.709999084473
Haemulon parra,USA,"KeyLargo,Florida,SnapperLedge",Reef,marine,4-12m,occasional,58.5,25.75
Haemulon plumierii,FrenchGuiana,DEVILISLAND,Island,marine,3-6m,scarce (very unlikely),5.2833333333333,52.583333333333
Haemulon plumierii,NethAntilles,"NetherlandsAntilles,Curacao,PortoMarie",Bay,marine,3-5m,abundant (always seen in some numbers),12.216666666667,69.083333333333
Haemulon plumierii,NethAntilles,"NetherlandsAntilles,Curacao,PortoMarie",Bay,marine,3-7m,abundant (always seen in some numbers),12.216666666667,69.083333333333
Haemulon plumierii,USA,"KeyLargo,Florida,MolassesReef",Reef,marine,4-12m,common,0.57700002193451,22.625999450684
Haemulon sciurus,USA,"KeyLargo,Florida,MolassesReef",Reef,marine,4-12m,abundant,0.57700002193451,22.625999450684
Haemulon vittatum,VirginIs.(US),"St.Croix,VirginIslands",Reef,marine,15-20m,,17.773499997457,64.813766670227
Halichoeres biocellatus,PapuaNewGuinea,"EndBommie,BootlessBay",Reef,marine,0-19m,,9.5900000254313,147.27000001272
Halichoeres bivittatus,USA,"KeyLargo,Florida,MinnowCaves",Reef,marine,4-12m,fairly common,7.9200000762939,17.709999084473
Halichoeres chrysus,Indonesia,"BatuNunggul,PenidaIsland,nearBali",Reef,marine,0-19m,,8.671666653951,115.5683333079
Halichoeres chrysus,Philippines,"SabangBay,PuertoGalera,Or.Mindoro",Bay,marine,12-18m,common (usually seen),65.05,217.2
Halichoeres cyanocephalus,VirginIs.(US),"St.Croix,VirginIslands",Reef,marine,20-25m,,17.714249992371,64.724433326721
Halichoeres dispilus,CostaRica,"ParqueNacionalMarinoLasBaulas,offPlayaCarbon",,marine,2-5m,common (usually seen),10.45,85.866666666667
Halichoeres hortulanus,Indonesia,"BatuNunggul,PenidaIsland,nearBali",Reef,marine,0-18m,,8.671666653951,115.5683333079
Halichoeres hortulanus,Indonesia,"Indonesia,LembehStrait,NudiRetreat",Lagoon,marine,15-27m,scarce,1.4900166511536,125.23516666094
Halichoeres hortulanus,Malaysia,"MonkeyBay,TiomanIsland",Reef,marine,0-5m,,2.85,104.15166667302
Halichoeres hortulanus,Mozambique,Coralreef,,marine,10-0m,common (usually seen),14.2,40.666666666667
Halichoeres hortulanus,Philippines,"PinkWall,PuertoGalera,Or.Mindoro",Reef,marine,16-m,fairly common (chances are about 50%),64.983333333333,218.88333333333
Halichoeres maculipinna,USA,"KeyLargo,Florida,SnapperLedge",Reef,marine,4-12m,fairly common,58.5,25.75
Halichoeres melanurus,Indonesia,"Indonesia,LembehStrait,KapalIndah",Lagoon,marine,15-27m,scarce,1.4317000071208,125.190716664
Halichoeres radiatus,USA,"FortPickensPier,PensacolaFL",Bay,marine,2-5m,occasional (usually not seen),30.416666666667,87.216666666667
Halichoeres radiatus,USA,"KeyLargo,Florida,MinnowCaves",Reef,marine,4-12m,scarce,0.57700002193451,22.625999450684
Halobatrachus didactylus,Portugal,"Setúbal,PortinhodaArrábida",Bay,marine,-7m,fairly common (chances are about 50%),38.466666666667,8.9666666666667
Harengula jaguana,USA,"IndianRiverLagoon,FortPierce,FL",Lagoon,marine,2-3m,common (usually seen),27.456000010172,80.309499994914
Helcogramma decurrens,Australia,"BoyinaBoatReef,Hillarys,WesternAustralia",Reef,marine,2-6m,common (usually seen),31.95,115.85
Helcogramma striata,Indonesia,"LembehStrait,various",Lagoon,marine,25-30m,fairly common (chances are about 50%),1.5226166725159,125.27795000076
Helicolenus dactylopterus,Italy,TIRRENO,,marine,,,38.183333333333,15.116666666667
Hemicaranx amblyrhynchus,USA,"NagsHeadNorthCarolina,AlbemarleSoundatJockey'sRidgeStatePark",Lagoon,brackish,-1m,occasional (usually not seen),194.66666666667,181.53333333333
Hemichromis bimaculatus,HongKong,AberdeenReservoir,Lake,freshwater,1-2m,abundant (always seen in some numbers),22.333333333333,114.16666666667
Hemichromis elongatus,HongKong,AberdeenReservoir,Lake,freshwater,1-2m,occasional (usually not seen),22.333333333333,114.16666666667
Hemiculter leucisculus,HongKong,AberdeenReservoir,Lake,freshwater,1-2m,abundant (always seen in some numbers),22.333333333333,114.16666666667
Hemiemblemaria simula,USA,"KeyLargo,Florida,SnapperLedge",Reef,marine,4-12m,scarce,58.5,25.75
Hemigymnus fasciatus,Indonesia,"BatuNunggul,PenidaIsland,nearBali",Reef,marine,0-18m,,8.671666653951,115.5683333079
Hemigymnus fasciatus,Indonesia,"SDPoint,PenidaIsland,nearBali",Reef,marine,0-17m,,8.668333307902,115.49166666667
Hemigymnus melapterus,Indonesia,"Indonesia,LembehStrait,NudiRetreat",Lagoon,marine,15-27m,scarce,1.4900166511536,125.23516666094
Hemigymnus melapterus,Malaysia,"FanCanyon,TulaiIsland,nearTiomanIsland",Reef,marine,0-17m,,2.9028333028158,104.1
Hemigymnus melapterus,Malaysia,"MonkeyBay,TiomanIsland",Reef,marine,0-5m,,2.85,104.15166667302
Hemigymnus melapterus,Malaysia,"MonkeyBay,TiomanIsland",Reef,marine,0-5m,,2.85,104.15166667302
Hemilutjanus macrophthalmos,Peru,PIURAPERU,Sea,marine,4-9m,fairly common (chances are about 50%),5.1666666666667,81.1
Hemiramphus balao,NethAntilles,"approx.50yardsoffShoreBaieRouge,St.Martin",Reef,marine,1-3m,occasional (usually not seen),18.066666666667,63.116666666667
Hemiscyllium freycineti,Indonesia,Misool,Sea,marine,5-10m,fairly common (chances are about 50%),2.2166666666667,127.63333333333
Hemitaurichthys polylepis,Indonesia,"BatuNunggul,PenidaIsland,nearBali",Reef,marine,0-18m,,8.671666653951,115.5683333079
Hemitaurichthys polylepis,Indonesia,"CrystalBay,PenidaIsland,nearBali",Reef,marine,0-22m,,8.7083333333333,115.45333334605
Hemitripterus americanus,USA,"IsrealsHead,Ogunquit,Maine,USA",Sea,marine,-5m,common (usually seen),43.239666668574,70.585999997457
Heniochus acuminatus,PapuaNewGuinea,"Susie'sBommie,BootlessBay",Reef,marine,0-28m,,9.571666653951,147.25166667302
Heniochus chrysostomus,Indonesia,"BatuNunggul,PenidaIsland,nearBali",Reef,marine,0-19m,,8.671666653951,115.5683333079
Heniochus pleurotaenia,Indonesia,"CrystalBay,PenidaIsland,nearBali",Reef,marine,0-22m,,8.7083333333333,115.45333334605
Heniochus singularius,Indonesia,"SDPoint,PenidaIsland,nearBali",Reef,marine,0-17m,,8.668333307902,115.49166666667
Heniochus singularius,PapuaNewGuinea,"Susie'sBommie,BootlessBay",Reef,marine,0-28m,,9.571666653951,147.25166667302
Heniochus varius,Indonesia,"AmedWall,Bali",Reef,marine,0-14m,,8.3333333333333,115.65333334605
Heniochus varius,Indonesia,"BatuNunggul,PenidaIsland,nearBali",Reef,marine,0-18m,,8.671666653951,115.5683333079
Heniochus varius,Indonesia,"CrystalBay,PenidaIsland,nearBali",Reef,marine,0-22m,,8.7083333333333,115.45333334605
Heniochus varius,Indonesia,"LembehStrait,several",Lagoon,marine,20-25m,occasional (usually not seen),1.5088166554769,125.2685500145
Heniochus varius,Indonesia,"SDPoint,PenidaIsland,nearBali",Reef,marine,0-17m,,8.668333307902,115.49166666667
Heniochus varius,PapuaNewGuinea,"EndBommie,BootlessBay",Reef,marine,0-19m,,9.5900000254313,147.27000001272
Heniochus varius,PapuaNewGuinea,"Quayle'sReef,BootlessBay",Reef,marine,0-23m,,9.575,147.3
Herklotsichthys quadrimaculatus,Malaysia,"SouthChineseSea,PulauSapi,offKotaKinabalu,Sabah,Malaysia",Island,marine,0-1m,common (usually seen),6.0046666666865,116.0050000002
Heteroconger hassi,Indonesia,"CrystalBay,PenidaIsland,nearBali",Reef,marine,0-22m,,8.7083333333333,115.45333334605
Heteronarce bentuviai,Israel,"Eilat,divers'village",Reef,marine,10-12m,scarce (very unlikely),29.333333333333,34.566666666667
Heterotilapia buttikoferi,HongKong,AberdeenReservoir,Lake,freshwater,2-3m,common (usually seen),22.333333333333,114.16666666667
Heterotilapia buttikoferi,Singapore,"JurongLake,LowerSeletarReservoir,PunggolPond",Pond,freshwater,0-1m,common (usually seen),1.3333333333333,103.71666666667
Hexagrammos stelleri,,BelcarraBay,Bay,marine,2-3m,common (usually seen),49.316666666667,122.91666666667
Hexagrammos stelleri,,BelcarraBay,Bay,marine,2-3m,common (usually seen),49.316666666667,122.91666666667
Hexagrammos stelleri,,"BelcarraBay,nearlighthouse",Bay,marine,7-10m,common (usually seen),49.316666666667,122.91666666667
Hexagrammos stelleri,,"BelcarraBay,overeelgrassbeds",Bay,marine,3-4m,common (usually seen),49.316666666667,122.91666666667
Hexagrammos stelleri,,BelcarraBay-offthebeach,Bay,marine,1-2m,common (usually seen),49.3,122.91666666667
Hexagrammos stelleri,,"BelcarraWharf,IndianArm",Bay,marine,5-7m,common (usually seen),49.316666666667,122.91666666667
Hexagrammos stelleri,,OffBelcarrawharf,Bay,marine,3-5m,common (usually seen),49.313000011444,122.92866668701
